{
"type": "FeatureCollection",
"name": "hotosm_ken_health_facilities_points_geojson",
"features": [
{ "type": "Feature", "properties": { "name": "Jubilee Centre Karen", "name:en": null, "amenity": "clinic", "building": null, "healthcare": "clinic", "healthcare:speciality": null, "operator:type": null, "capacity:persons": null, "addr:full": null, "addr:city": "Nairobi", "source": null, "name:sw": null, "osm_id": 7501513238, "osm_type": "nodes" }, "geometry": { "type": "Point", "coordinates": [ 36.757517, -1.3407826 ] } },
{ "type": "Feature", "properties": { "name": "Rongo University Clinic", "name:en": null, "amenity": "clinic", "building": null, "healthcare": "clinic", "healthcare:speciality": null, "operator:type": null, "capacity:persons": null, "addr:full": null, "addr:city": null, "source": null, "name:sw": null, "osm_id": 6191765988, "osm_type": "nodes" }, "geometry": { "type": "Point", "coordinates": [ 34.6127831, -0.8249483 ] } },
{ "type": "Feature", "properties": { "name": "Lea Toto Community (Mukuru Reuben)", "name:en": null, "amenity": "clinic", "building": null, "healthcare": "clinic", "healthcare:speciality": null, "operator:type": "religious", "capacity:persons": null, "addr:full": null, "addr:city": null, "source": null, "name:sw": null, "osm_id": 949597526, "osm_type": "nodes" }, "geometry": { "type": "Point", "coordinates": [ 36.8694824, -1.3159102 ] } },
{ "type": "Feature", "properties": { "name": "Mwangaza Ulio na Tumaini Clinic", "name:en": null, "amenity": "hospital", "building": null, "healthcare": "hospital", "healthcare:speciality": null, "operator:type": null, "capacity:persons": null, "addr:full": null, "addr:city": null, "source": null, "name:sw": null, "osm_id": 8891939521, "osm_type": "nodes" }, "geometry": { "type": "Point", "coordinates": [ 36.8919, -1.251073 ] } },
{ "type": "Feature", "properties": { "name": "Mayaka Healthcare Center", "name:en": null, "amenity": "clinic", "building": null, "healthcare": "clinic", "healthcare:speciality": null, "operator:type": null, "capacity:persons": null, "addr:full": null, "addr:city": null, "source": null, "name:sw": null, "osm_id": 10735348497, "osm_type": "nodes" }, "geometry": { "type": "Point", "coordinates": [ 34.7969089, -0.9110472 ] } },
{ "type": "Feature", "properties": { "name": "Mariakani Cottage Hospital", "name:en": null, "amenity": "hospital", "building": null, "healthcare": "hospital", "healthcare:speciality": "gynaecology", "operator:type": "private", "capacity:persons": null, "addr:full": null, "addr:city": "Mlolongo", "source": null, "name:sw": null, "osm_id": 6210121906, "osm_type": "nodes" }, "geometry": { "type": "Point", "coordinates": [ 36.934438, -1.3909021 ] } },
{ "type": "Feature", "properties": { "name": "Two Brothers Center", "name:en": null, "amenity": null, "building": null, "healthcare": "yes", "healthcare:speciality": null, "operator:type": null, "capacity:persons": null, "addr:full": null, "addr:city": null, "source": null, "name:sw": null, "osm_id": 6191765989, "osm_type": "nodes" }, "geometry": { "type": "Point", "coordinates": [ 34.6171795, -0.8272184 ] } },
{ "type": "Feature", "properties": { "name": "Ongo Health Center", "name:en": null, "amenity": null, "building": null, "healthcare": "yes", "healthcare:speciality": null, "operator:type": null, "capacity:persons": null, "addr:full": null, "addr:city": null, "source": null, "name:sw": null, "osm_id": 6191765995, "osm_type": "nodes" }, "geometry": { "type": "Point", "coordinates": [ 34.6079982, -0.9096654 ] } },
{ "type": "Feature", "properties": { "name": "Empire Chemist", "name:en": null, "amenity": "*", "building": null, "healthcare": "*", "healthcare:speciality": null, "operator:type": null, "capacity:persons": null, "addr:full": null, "addr:city": null, "source": null, "name:sw": null, "osm_id": 8891997095, "osm_type": "nodes" }, "geometry": { "type": "Point", "coordinates": [ 36.8912003, -1.2491027 ] } },
{ "type": "Feature", "properties": { "name": "Faith healer", "name:en": null, "amenity": "*", "building": null, "healthcare": "alternative", "healthcare:speciality": null, "operator:type": null, "capacity:persons": null, "addr:full": null, "addr:city": null, "source": null, "name:sw": null, "osm_id": 8891997076, "osm_type": "nodes" }, "geometry": { "type": "Point", "coordinates": [ 36.8916999, -1.2516907 ] } },
{ "type": "Feature", "properties": { "name": "Aga Khan Clinic Embakasi", "name:en": null, "amenity": "clinic", "building": null, "healthcare": "clinic;doctor;physiotherapist", "healthcare:speciality": "biological_haematology;blood_check;dental_oral_maxillo_facial_surgery;dermatology;emergency;gynaecology;occupational;vaccination", "operator:type": "private", "capacity:persons": null, "addr:full": null, "addr:city": "Nairobi", "source": null, "name:sw": null, "osm_id": 7569664285, "osm_type": "nodes" }, "geometry": { "type": "Point", "coordinates": [ 36.8973899, -1.3189242 ] } },
{ "type": "Feature", "properties": { "name": "OLJABET HOSPITAL TOWN CLINIC", "name:en": null, "amenity": "hospital", "building": null, "healthcare": "hospital", "healthcare:speciality": "general;gynaecology;orthopaedics;psychiatry;radiology;physiotherapy;vaccination;surgery", "operator:type": "private", "capacity:persons": null, "addr:full": null, "addr:city": "Nyahururu", "source": null, "name:sw": null, "osm_id": 9810458487, "osm_type": "nodes" }, "geometry": { "type": "Point", "coordinates": [ 36.3612465, 0.0370468 ] } },
{ "type": "Feature", "properties": { "name": "New Hope chemist", "name:en": null, "amenity": "pharmacy", "building": null, "healthcare": null, "healthcare:speciality": null, "operator:type": null, "capacity:persons": null, "addr:full": null, "addr:city": null, "source": null, "name:sw": null, "osm_id": 3856148566, "osm_type": "nodes" }, "geometry": { "type": "Point", "coordinates": [ 36.8494253, -1.3144214 ] } },
{ "type": "Feature", "properties": { "name": "legacy dispensing chemist", "name:en": null, "amenity": "hospital", "building": null, "healthcare": null, "healthcare:speciality": null, "operator:type": null, "capacity:persons": null, "addr:full": null, "addr:city": null, "source": null, "name:sw": null, "osm_id": 3723146925, "osm_type": "nodes" }, "geometry": { "type": "Point", "coordinates": [ 36.8922938, -1.2460944 ] } },
{ "type": "Feature", "properties": { "name": null, "name:en": null, "amenity": "pharmacy", "building": null, "healthcare": null, "healthcare:speciality": null, "operator:type": null, "capacity:persons": null, "addr:full": null, "addr:city": null, "source": null, "name:sw": null, "osm_id": 2405883356, "osm_type": "nodes" }, "geometry": { "type": "Point", "coordinates": [ 36.8989494, -1.2395054 ] } },
{ "type": "Feature", "properties": { "name": "Late night chemist", "name:en": null, "amenity": "pharmacy", "building": null, "healthcare": null, "healthcare:speciality": null, "operator:type": null, "capacity:persons": null, "addr:full": null, "addr:city": null, "source": null, "name:sw": null, "osm_id": 1124602228, "osm_type": "nodes" }, "geometry": { "type": "Point", "coordinates": [ 36.8644632, -1.2588895 ] } },
{ "type": "Feature", "properties": { "name": "Malibu", "name:en": null, "amenity": "pharmacy", "building": null, "healthcare": "pharmacy", "healthcare:speciality": null, "operator:type": null, "capacity:persons": null, "addr:full": null, "addr:city": null, "source": null, "name:sw": null, "osm_id": 6110577686, "osm_type": "nodes" }, "geometry": { "type": "Point", "coordinates": [ 36.8265424, -1.2879752 ] } },
{ "type": "Feature", "properties": { "name": "Claude Shop", "name:en": null, "amenity": "pharmacy", "building": null, "healthcare": null, "healthcare:speciality": null, "operator:type": null, "capacity:persons": null, "addr:full": null, "addr:city": null, "source": null, "name:sw": null, "osm_id": 11001839041, "osm_type": "nodes" }, "geometry": { "type": "Point", "coordinates": [ 34.758339, 3.7494486 ] } },
{ "type": "Feature", "properties": { "name": "Goodlife Pharmacy Health Beauty.", "name:en": null, "amenity": "pharmacy", "building": null, "healthcare": "pharmacy", "healthcare:speciality": null, "operator:type": "private", "capacity:persons": null, "addr:full": null, "addr:city": "Kakuma", "source": null, "name:sw": null, "osm_id": 10864747456, "osm_type": "nodes" }, "geometry": { "type": "Point", "coordinates": [ 34.8556837, 3.7106344 ] } },
{ "type": "Feature", "properties": { "name": "Cross Roads Chemist", "name:en": null, "amenity": "pharmacy", "building": null, "healthcare": "pharmacy", "healthcare:speciality": null, "operator:type": null, "capacity:persons": null, "addr:full": null, "addr:city": null, "source": null, "name:sw": null, "osm_id": 4006097790, "osm_type": "nodes" }, "geometry": { "type": "Point", "coordinates": [ 34.5608238, 0.5640099 ] } },
{ "type": "Feature", "properties": { "name": "St Louice Medical Clinic and Laboratory Services", "name:en": null, "amenity": "clinic", "building": null, "healthcare": null, "healthcare:speciality": null, "operator:type": null, "capacity:persons": null, "addr:full": null, "addr:city": "Buteba", "source": null, "name:sw": null, "osm_id": 3999155390, "osm_type": "nodes" }, "geometry": { "type": "Point", "coordinates": [ 34.1257065, 0.5361389 ] } },
{ "type": "Feature", "properties": { "name": "Floh's Phamacy", "name:en": null, "amenity": "pharmacy", "building": null, "healthcare": null, "healthcare:speciality": null, "operator:type": null, "capacity:persons": null, "addr:full": null, "addr:city": null, "source": null, "name:sw": null, "osm_id": 1423117251, "osm_type": "nodes" }, "geometry": { "type": "Point", "coordinates": [ 34.2946252, 0.1806867 ] } },
{ "type": "Feature", "properties": { "name": "Gibbos Clinic", "name:en": null, "amenity": "clinic", "building": null, "healthcare": "clinic", "healthcare:speciality": null, "operator:type": null, "capacity:persons": null, "addr:full": null, "addr:city": null, "source": null, "name:sw": null, "osm_id": 9800982566, "osm_type": "nodes" }, "geometry": { "type": "Point", "coordinates": [ 36.9727891, -1.2901558 ] } },
{ "type": "Feature", "properties": { "name": "Villa Medical Centre", "name:en": null, "amenity": "clinic", "building": null, "healthcare": null, "healthcare:speciality": null, "operator:type": "private", "capacity:persons": null, "addr:full": null, "addr:city": null, "source": null, "name:sw": null, "osm_id": 4503879853, "osm_type": "nodes" }, "geometry": { "type": "Point", "coordinates": [ 36.8635425, -1.2628715 ] } },
{ "type": "Feature", "properties": { "name": "Glorious Chemist and Clinic", "name:en": null, "amenity": "clinic", "building": null, "healthcare": null, "healthcare:speciality": null, "operator:type": "private", "capacity:persons": null, "addr:full": null, "addr:city": null, "source": null, "name:sw": null, "osm_id": 4504009846, "osm_type": "nodes" }, "geometry": { "type": "Point", "coordinates": [ 36.861276, -1.2619302 ] } },
{ "type": "Feature", "properties": { "name": "Pona Medical Centre", "name:en": null, "amenity": "clinic", "building": null, "healthcare": null, "healthcare:speciality": null, "operator:type": "private", "capacity:persons": null, "addr:full": null, "addr:city": null, "source": null, "name:sw": null, "osm_id": 4504009847, "osm_type": "nodes" }, "geometry": { "type": "Point", "coordinates": [ 36.8605312, -1.2620157 ] } },
{ "type": "Feature", "properties": { "name": "Hope chemist", "name:en": null, "amenity": "hospital", "building": null, "healthcare": null, "healthcare:speciality": null, "operator:type": "private", "capacity:persons": null, "addr:full": null, "addr:city": null, "source": null, "name:sw": null, "osm_id": 2378857096, "osm_type": "nodes" }, "geometry": { "type": "Point", "coordinates": [ 36.8610521, -1.2614276 ] } },
{ "type": "Feature", "properties": { "name": "Baraka chemist", "name:en": null, "amenity": "pharmacy", "building": null, "healthcare": null, "healthcare:speciality": null, "operator:type": "private", "capacity:persons": null, "addr:full": null, "addr:city": null, "source": null, "name:sw": null, "osm_id": 4503972768, "osm_type": "nodes" }, "geometry": { "type": "Point", "coordinates": [ 36.8631879, -1.261115 ] } },
{ "type": "Feature", "properties": { "name": "Pona 3 Dispensary", "name:en": null, "amenity": "pharmacy", "building": null, "healthcare": null, "healthcare:speciality": null, "operator:type": "private", "capacity:persons": null, "addr:full": null, "addr:city": null, "source": null, "name:sw": null, "osm_id": 4503959148, "osm_type": "nodes" }, "geometry": { "type": "Point", "coordinates": [ 36.85684, -1.2631868 ] } },
{ "type": "Feature", "properties": { "name": "Uzima2 clinic", "name:en": null, "amenity": "clinic", "building": null, "healthcare": null, "healthcare:speciality": null, "operator:type": "private", "capacity:persons": null, "addr:full": null, "addr:city": null, "source": null, "name:sw": null, "osm_id": 4502112970, "osm_type": "nodes" }, "geometry": { "type": "Point", "coordinates": [ 36.8592713, -1.2641912 ] } },
{ "type": "Feature", "properties": { "name": "Real Hospital Utawala", "name:en": null, "amenity": "hospital", "building": null, "healthcare": "hospital", "healthcare:speciality": null, "operator:type": null, "capacity:persons": null, "addr:full": null, "addr:city": null, "source": null, "name:sw": null, "osm_id": 9800970628, "osm_type": "nodes" }, "geometry": { "type": "Point", "coordinates": [ 36.9728427, -1.2866612 ] } },
{ "type": "Feature", "properties": { "name": "Mediheal Utawala", "name:en": null, "amenity": "hospital", "building": null, "healthcare": "hospital", "healthcare:speciality": null, "operator:type": null, "capacity:persons": null, "addr:full": null, "addr:city": null, "source": null, "name:sw": null, "osm_id": 9800982577, "osm_type": "nodes" }, "geometry": { "type": "Point", "coordinates": [ 36.971493, -1.2889759 ] } },
{ "type": "Feature", "properties": { "name": "Vincent Chemist Mabatini", "name:en": null, "amenity": "pharmacy", "building": null, "healthcare": null, "healthcare:speciality": null, "operator:type": "private", "capacity:persons": null, "addr:full": null, "addr:city": null, "source": null, "name:sw": null, "osm_id": 4503972775, "osm_type": "nodes" }, "geometry": { "type": "Point", "coordinates": [ 36.8639367, -1.260592 ] } },
{ "type": "Feature", "properties": { "name": "Flovins Chemist", "name:en": null, "amenity": "pharmacy", "building": null, "healthcare": null, "healthcare:speciality": null, "operator:type": null, "capacity:persons": null, "addr:full": null, "addr:city": null, "source": null, "name:sw": null, "osm_id": 3105367388, "osm_type": "nodes" }, "geometry": { "type": "Point", "coordinates": [ 37.1570738, -0.7207057 ] } },
{ "type": "Feature", "properties": { "name": "Smiles Dental Lab", "name:en": null, "amenity": "dentist", "building": null, "healthcare": null, "healthcare:speciality": null, "operator:type": null, "capacity:persons": null, "addr:full": null, "addr:city": null, "source": null, "name:sw": null, "osm_id": 3105369931, "osm_type": "nodes" }, "geometry": { "type": "Point", "coordinates": [ 37.1608441, -0.7220156 ] } },
{ "type": "Feature", "properties": { "name": "AIC Zion Medical Clinic", "name:en": null, "amenity": "clinic", "building": null, "healthcare": null, "healthcare:speciality": null, "operator:type": "faith_based_organization", "capacity:persons": null, "addr:full": null, "addr:city": null, "source": null, "name:sw": null, "osm_id": 4503879843, "osm_type": "nodes" }, "geometry": { "type": "Point", "coordinates": [ 36.8623015, -1.262991 ] } },
{ "type": "Feature", "properties": { "name": "Dandora II Health Center", "name:en": null, "amenity": "dentist", "building": null, "healthcare": "dentist", "healthcare:speciality": null, "operator:type": null, "capacity:persons": null, "addr:full": null, "addr:city": null, "source": null, "name:sw": null, "osm_id": 8962970093, "osm_type": "nodes" }, "geometry": { "type": "Point", "coordinates": [ 36.9034522, -1.2476604 ] } },
{ "type": "Feature", "properties": { "name": "Gatura Dispensary", "name:en": null, "amenity": "hospital", "building": null, "healthcare": "hospital", "healthcare:speciality": "general", "operator:type": null, "capacity:persons": null, "addr:full": null, "addr:city": null, "source": null, "name:sw": null, "osm_id": 9779025431, "osm_type": "nodes" }, "geometry": { "type": "Point", "coordinates": [ 36.8622428, -0.8629635 ] } },
{ "type": "Feature", "properties": { "name": "Lukusero Dispensary", "name:en": null, "amenity": null, "building": null, "healthcare": "yes", "healthcare:speciality": null, "operator:type": null, "capacity:persons": null, "addr:full": null, "addr:city": null, "source": null, "name:sw": null, "osm_id": 6054224887, "osm_type": "nodes" }, "geometry": { "type": "Point", "coordinates": [ 37.2975727, 0.3081731 ] } },
{ "type": "Feature", "properties": { "name": "Voi Medical Centre", "name:en": "Voi Medical Centre", "amenity": "clinic", "building": null, "healthcare": null, "healthcare:speciality": null, "operator:type": null, "capacity:persons": null, "addr:full": null, "addr:city": null, "source": null, "name:sw": null, "osm_id": 4595588690, "osm_type": "nodes" }, "geometry": { "type": "Point", "coordinates": [ 38.560033, -3.3939449 ] } },
{ "type": "Feature", "properties": { "name": "Jocham", "name:en": null, "amenity": "hospital", "building": null, "healthcare": null, "healthcare:speciality": null, "operator:type": null, "capacity:persons": null, "addr:full": null, "addr:city": "Mombasa", "source": null, "name:sw": null, "osm_id": 1795791432, "osm_type": "nodes" }, "geometry": { "type": "Point", "coordinates": [ 39.6820435, -4.0368289 ] } },
{ "type": "Feature", "properties": { "name": "Kitengela Medical Services", "name:en": null, "amenity": null, "building": null, "healthcare": "yes", "healthcare:speciality": null, "operator:type": null, "capacity:persons": null, "addr:full": null, "addr:city": null, "source": null, "name:sw": null, "osm_id": 9859821527, "osm_type": "nodes" }, "geometry": { "type": "Point", "coordinates": [ 36.792368, -1.8387821 ] } },
{ "type": "Feature", "properties": { "name": "Mertenity clinic", "name:en": null, "amenity": "hospital", "building": null, "healthcare": null, "healthcare:speciality": null, "operator:type": null, "capacity:persons": null, "addr:full": null, "addr:city": null, "source": null, "name:sw": null, "osm_id": 1419101749, "osm_type": "nodes" }, "geometry": { "type": "Point", "coordinates": [ 36.8870659, -1.3194392 ] } },
{ "type": "Feature", "properties": { "name": "Johana Justin Jinnich(Shofco Mathre)", "name:en": null, "amenity": "hospital", "building": null, "healthcare": "hospital", "healthcare:speciality": null, "operator:type": "ngo_national", "capacity:persons": null, "addr:full": null, "addr:city": null, "source": null, "name:sw": null, "osm_id": 4503896057, "osm_type": "nodes" }, "geometry": { "type": "Point", "coordinates": [ 36.8578927, -1.2633569 ] } },
{ "type": "Feature", "properties": { "name": "Raisi chemist", "name:en": null, "amenity": "pharmacy", "building": null, "healthcare": "pharmacy", "healthcare:speciality": null, "operator:type": "private", "capacity:persons": null, "addr:full": null, "addr:city": null, "source": null, "name:sw": null, "osm_id": 612008410, "osm_type": "nodes" }, "geometry": { "type": "Point", "coordinates": [ 36.7859966, -1.3096893 ] } },
{ "type": "Feature", "properties": { "name": "Elmac Chemist", "name:en": null, "amenity": "pharmacy", "building": null, "healthcare": "pharmacy", "healthcare:speciality": null, "operator:type": "private", "capacity:persons": null, "addr:full": null, "addr:city": null, "source": null, "name:sw": null, "osm_id": 612008876, "osm_type": "nodes" }, "geometry": { "type": "Point", "coordinates": [ 36.7774467, -1.3135619 ] } },
{ "type": "Feature", "properties": { "name": "Animal Clinic Tudor", "name:en": null, "amenity": "pharmacy", "building": null, "healthcare": "pharmacy", "healthcare:speciality": null, "operator:type": null, "capacity:persons": null, "addr:full": null, "addr:city": "Mombasa", "source": null, "name:sw": null, "osm_id": 6024544107, "osm_type": "nodes" }, "geometry": { "type": "Point", "coordinates": [ 39.6693013, -4.034677 ] } },
{ "type": "Feature", "properties": { "name": "St Edith", "name:en": null, "amenity": "pharmacy", "building": null, "healthcare": "pharmacy", "healthcare:speciality": null, "operator:type": "private", "capacity:persons": null, "addr:full": null, "addr:city": null, "source": null, "name:sw": null, "osm_id": 2052594494, "osm_type": "nodes" }, "geometry": { "type": "Point", "coordinates": [ 36.7950002, -1.3111604 ] } },
{ "type": "Feature", "properties": { "name": "Neema", "name:en": null, "amenity": "pharmacy", "building": null, "healthcare": "pharmacy", "healthcare:speciality": null, "operator:type": "private", "capacity:persons": null, "addr:full": null, "addr:city": null, "source": null, "name:sw": null, "osm_id": 696655680, "osm_type": "nodes" }, "geometry": { "type": "Point", "coordinates": [ 36.7775527, -1.3130303 ] } },
{ "type": "Feature", "properties": { "name": "Trust and Rejoice Medical Clinic", "name:en": null, "amenity": "pharmacy", "building": null, "healthcare": null, "healthcare:speciality": null, "operator:type": null, "capacity:persons": null, "addr:full": null, "addr:city": null, "source": null, "name:sw": null, "osm_id": 1456685402, "osm_type": "nodes" }, "geometry": { "type": "Point", "coordinates": [ 36.8480561, -1.3138668 ] } },
{ "type": "Feature", "properties": { "name": "Eldoret Gynocare", "name:en": null, "amenity": "hospital", "building": null, "healthcare": "hospital", "healthcare:speciality": "gynaecology", "operator:type": null, "capacity:persons": null, "addr:full": null, "addr:city": null, "source": null, "name:sw": null, "osm_id": 12255888316, "osm_type": "nodes" }, "geometry": { "type": "Point", "coordinates": [ 35.2779187, 0.5211226 ] } },
{ "type": "Feature", "properties": { "name": "PCEA Chogoria Hospital", "name:en": null, "amenity": "hospital", "building": null, "healthcare": "hospital", "healthcare:speciality": "internal;paediatrics;radiology;surgery;dermatology;dentist;general;gynaecology;maternity", "operator:type": "religious", "capacity:persons": null, "addr:full": null, "addr:city": null, "source": "GPS", "name:sw": null, "osm_id": 651910906, "osm_type": "nodes" }, "geometry": { "type": "Point", "coordinates": [ 37.6281616, -0.2302644 ] } },
{ "type": "Feature", "properties": { "name": "Microbiology and Chemistry Laboratories", "name:en": null, "amenity": null, "building": null, "healthcare": "laboratory", "healthcare:speciality": null, "operator:type": null, "capacity:persons": null, "addr:full": null, "addr:city": "Mombasa", "source": null, "name:sw": null, "osm_id": 6022279679, "osm_type": "nodes" }, "geometry": { "type": "Point", "coordinates": [ 39.6647811, -4.0371857 ] } },
{ "type": "Feature", "properties": { "name": "Kemri/Cdc Program", "name:en": null, "amenity": null, "building": null, "healthcare": "laboratory", "healthcare:speciality": null, "operator:type": "cbo", "capacity:persons": null, "addr:full": null, "addr:city": null, "source": null, "name:sw": null, "osm_id": 7930812999, "osm_type": "nodes" }, "geometry": { "type": "Point", "coordinates": [ 36.7794967, -1.3139967 ] } },
{ "type": "Feature", "properties": { "name": "Total community Development Health Care", "name:en": null, "amenity": "hospital", "building": null, "healthcare": "pharmacy", "healthcare:speciality": null, "operator:type": null, "capacity:persons": null, "addr:full": null, "addr:city": null, "source": null, "name:sw": null, "osm_id": 8032765487, "osm_type": "nodes" }, "geometry": { "type": "Point", "coordinates": [ 36.8643022, -1.2589272 ] } },
{ "type": "Feature", "properties": { "name": "Ngata bridge", "name:en": null, "amenity": "pharmacy", "building": null, "healthcare": "pharmacy", "healthcare:speciality": null, "operator:type": null, "capacity:persons": null, "addr:full": null, "addr:city": null, "source": null, "name:sw": null, "osm_id": 3078100353, "osm_type": "nodes" }, "geometry": { "type": "Point", "coordinates": [ 36.0662915, -0.285305 ] } },
{ "type": "Feature", "properties": { "name": "Liberty Nursing home", "name:en": null, "amenity": "hospital", "building": null, "healthcare": "hospital", "healthcare:speciality": "general", "operator:type": null, "capacity:persons": null, "addr:full": null, "addr:city": "Embu", "source": null, "name:sw": null, "osm_id": 11900201544, "osm_type": "nodes" }, "geometry": { "type": "Point", "coordinates": [ 37.4579947, -0.5290357 ] } },
{ "type": "Feature", "properties": { "name": "Chemist", "name:en": null, "amenity": "pharmacy", "building": null, "healthcare": null, "healthcare:speciality": null, "operator:type": "unknown", "capacity:persons": null, "addr:full": null, "addr:city": null, "source": null, "name:sw": null, "osm_id": 8074036777, "osm_type": "nodes" }, "geometry": { "type": "Point", "coordinates": [ 36.7493544, -1.2877095 ] } },
{ "type": "Feature", "properties": { "name": "Melmarvic", "name:en": null, "amenity": "pharmacy", "building": null, "healthcare": null, "healthcare:speciality": null, "operator:type": "unknown", "capacity:persons": null, "addr:full": null, "addr:city": null, "source": null, "name:sw": null, "osm_id": 8074036746, "osm_type": "nodes" }, "geometry": { "type": "Point", "coordinates": [ 36.7468184, -1.2899569 ] } },
{ "type": "Feature", "properties": { "name": "Late Night", "name:en": null, "amenity": "pharmacy", "building": null, "healthcare": null, "healthcare:speciality": null, "operator:type": "unknown", "capacity:persons": null, "addr:full": null, "addr:city": null, "source": null, "name:sw": null, "osm_id": 8074036806, "osm_type": "nodes" }, "geometry": { "type": "Point", "coordinates": [ 36.7265531, -1.2876718 ] } },
{ "type": "Feature", "properties": { "name": "Chemist", "name:en": null, "amenity": "pharmacy", "building": null, "healthcare": null, "healthcare:speciality": null, "operator:type": "unknown", "capacity:persons": null, "addr:full": null, "addr:city": null, "source": null, "name:sw": null, "osm_id": 8074036733, "osm_type": "nodes" }, "geometry": { "type": "Point", "coordinates": [ 36.7546133, -1.2813624 ] } },
{ "type": "Feature", "properties": { "name": "Eloc Pharmacy", "name:en": null, "amenity": "pharmacy", "building": null, "healthcare": null, "healthcare:speciality": null, "operator:type": "unknown", "capacity:persons": null, "addr:full": null, "addr:city": null, "source": null, "name:sw": null, "osm_id": 8074036735, "osm_type": "nodes" }, "geometry": { "type": "Point", "coordinates": [ 36.7533611, -1.2978756 ] } },
{ "type": "Feature", "properties": { "name": "Wa Ann Pharmacy", "name:en": null, "amenity": "pharmacy", "building": null, "healthcare": null, "healthcare:speciality": null, "operator:type": "unknown", "capacity:persons": null, "addr:full": null, "addr:city": null, "source": null, "name:sw": null, "osm_id": 8074036736, "osm_type": "nodes" }, "geometry": { "type": "Point", "coordinates": [ 36.753336, -1.2979349 ] } },
{ "type": "Feature", "properties": { "name": "L", "name:en": null, "amenity": "pharmacy", "building": null, "healthcare": null, "healthcare:speciality": null, "operator:type": "unknown", "capacity:persons": null, "addr:full": null, "addr:city": null, "source": null, "name:sw": null, "osm_id": 8074036737, "osm_type": "nodes" }, "geometry": { "type": "Point", "coordinates": [ 36.7533096, -1.2979563 ] } },
{ "type": "Feature", "properties": { "name": "Vinly", "name:en": null, "amenity": "pharmacy", "building": null, "healthcare": null, "healthcare:speciality": null, "operator:type": "unknown", "capacity:persons": null, "addr:full": null, "addr:city": null, "source": null, "name:sw": null, "osm_id": 8074036748, "osm_type": "nodes" }, "geometry": { "type": "Point", "coordinates": [ 36.7530626, -1.2889055 ] } },
{ "type": "Feature", "properties": { "name": "St Ann's", "name:en": null, "amenity": "pharmacy", "building": null, "healthcare": null, "healthcare:speciality": null, "operator:type": "unknown", "capacity:persons": null, "addr:full": null, "addr:city": null, "source": null, "name:sw": null, "osm_id": 8074036750, "osm_type": "nodes" }, "geometry": { "type": "Point", "coordinates": [ 36.7561716, -1.279876 ] } },
{ "type": "Feature", "properties": { "name": "Sanmed Chemist", "name:en": null, "amenity": "pharmacy", "building": null, "healthcare": null, "healthcare:speciality": null, "operator:type": "unknown", "capacity:persons": null, "addr:full": null, "addr:city": null, "source": null, "name:sw": null, "osm_id": 8074036771, "osm_type": "nodes" }, "geometry": { "type": "Point", "coordinates": [ 36.7531625, -1.2886837 ] } },
{ "type": "Feature", "properties": { "name": "Chemist", "name:en": null, "amenity": "pharmacy", "building": null, "healthcare": null, "healthcare:speciality": null, "operator:type": "unknown", "capacity:persons": null, "addr:full": null, "addr:city": null, "source": null, "name:sw": null, "osm_id": 8074036776, "osm_type": "nodes" }, "geometry": { "type": "Point", "coordinates": [ 36.751336, -1.2885491 ] } },
{ "type": "Feature", "properties": { "name": "Duka LA Dawa", "name:en": null, "amenity": "pharmacy", "building": null, "healthcare": null, "healthcare:speciality": null, "operator:type": "unknown", "capacity:persons": null, "addr:full": null, "addr:city": null, "source": null, "name:sw": null, "osm_id": 8074036784, "osm_type": "nodes" }, "geometry": { "type": "Point", "coordinates": [ 36.7332906, -1.291448 ] } },
{ "type": "Feature", "properties": { "name": "Sky Chemist", "name:en": null, "amenity": "pharmacy", "building": null, "healthcare": null, "healthcare:speciality": null, "operator:type": "unknown", "capacity:persons": null, "addr:full": null, "addr:city": null, "source": null, "name:sw": null, "osm_id": 8074036786, "osm_type": "nodes" }, "geometry": { "type": "Point", "coordinates": [ 36.7514483, -1.2903433 ] } },
{ "type": "Feature", "properties": { "name": "Bestamed Pharmacy", "name:en": null, "amenity": "pharmacy", "building": null, "healthcare": null, "healthcare:speciality": null, "operator:type": "unknown", "capacity:persons": null, "addr:full": null, "addr:city": null, "source": null, "name:sw": null, "osm_id": 8074036788, "osm_type": "nodes" }, "geometry": { "type": "Point", "coordinates": [ 36.734638, -1.2928839 ] } },
{ "type": "Feature", "properties": { "name": "Clinic", "name:en": null, "amenity": "pharmacy", "building": null, "healthcare": null, "healthcare:speciality": null, "operator:type": "unknown", "capacity:persons": null, "addr:full": null, "addr:city": null, "source": null, "name:sw": null, "osm_id": 8074036791, "osm_type": "nodes" }, "geometry": { "type": "Point", "coordinates": [ 36.7534197, -1.2872266 ] } },
{ "type": "Feature", "properties": { "name": "Keystone Pharmacy", "name:en": null, "amenity": "pharmacy", "building": null, "healthcare": null, "healthcare:speciality": null, "operator:type": "unknown", "capacity:persons": null, "addr:full": null, "addr:city": null, "source": null, "name:sw": null, "osm_id": 8074036792, "osm_type": "nodes" }, "geometry": { "type": "Point", "coordinates": [ 36.7564717, -1.2860267 ] } },
{ "type": "Feature", "properties": { "name": "Assurelab", "name:en": null, "amenity": "pharmacy", "building": null, "healthcare": null, "healthcare:speciality": null, "operator:type": "unknown", "capacity:persons": null, "addr:full": null, "addr:city": null, "source": null, "name:sw": null, "osm_id": 8074036793, "osm_type": "nodes" }, "geometry": { "type": "Point", "coordinates": [ 36.7414083, -1.2867517 ] } },
{ "type": "Feature", "properties": { "name": "Ninalink Chemist", "name:en": null, "amenity": "pharmacy", "building": null, "healthcare": null, "healthcare:speciality": null, "operator:type": "unknown", "capacity:persons": null, "addr:full": null, "addr:city": null, "source": null, "name:sw": null, "osm_id": 8074036801, "osm_type": "nodes" }, "geometry": { "type": "Point", "coordinates": [ 36.7483767, -1.2912567 ] } },
{ "type": "Feature", "properties": { "name": "Galex", "name:en": null, "amenity": "pharmacy", "building": null, "healthcare": null, "healthcare:speciality": null, "operator:type": "unknown", "capacity:persons": null, "addr:full": null, "addr:city": null, "source": null, "name:sw": null, "osm_id": 8074036802, "osm_type": "nodes" }, "geometry": { "type": "Point", "coordinates": [ 36.7484065, -1.2917107 ] } },
{ "type": "Feature", "properties": { "name": "Jomu Pharmaceutical", "name:en": null, "amenity": "pharmacy", "building": null, "healthcare": null, "healthcare:speciality": null, "operator:type": "unknown", "capacity:persons": null, "addr:full": null, "addr:city": null, "source": null, "name:sw": null, "osm_id": 8074036797, "osm_type": "nodes" }, "geometry": { "type": "Point", "coordinates": [ 36.7431827, -1.2828684 ] } },
{ "type": "Feature", "properties": { "name": "Janjay Chemists", "name:en": null, "amenity": "pharmacy", "building": null, "healthcare": null, "healthcare:speciality": null, "operator:type": "unknown", "capacity:persons": null, "addr:full": null, "addr:city": null, "source": null, "name:sw": null, "osm_id": 8074036794, "osm_type": "nodes" }, "geometry": { "type": "Point", "coordinates": [ 36.7423383, -1.2842233 ] } },
{ "type": "Feature", "properties": { "name": "Chemist", "name:en": null, "amenity": "pharmacy", "building": null, "healthcare": null, "healthcare:speciality": null, "operator:type": "unknown", "capacity:persons": null, "addr:full": null, "addr:city": null, "source": null, "name:sw": null, "osm_id": 8074036749, "osm_type": "nodes" }, "geometry": { "type": "Point", "coordinates": [ 36.7265531, -1.2879149 ] } },
{ "type": "Feature", "properties": { "name": "Agrovet", "name:en": null, "amenity": "pharmacy", "building": null, "healthcare": null, "healthcare:speciality": null, "operator:type": "unknown", "capacity:persons": null, "addr:full": null, "addr:city": null, "source": null, "name:sw": null, "osm_id": 8074036782, "osm_type": "nodes" }, "geometry": { "type": "Point", "coordinates": [ 36.751115, -1.2899683 ] } },
{ "type": "Feature", "properties": { "name": "Chemist", "name:en": null, "amenity": "pharmacy", "building": null, "healthcare": null, "healthcare:speciality": null, "operator:type": "unknown", "capacity:persons": null, "addr:full": null, "addr:city": null, "source": null, "name:sw": null, "osm_id": 8074036787, "osm_type": "nodes" }, "geometry": { "type": "Point", "coordinates": [ 36.7508984, -1.2822428 ] } },
{ "type": "Feature", "properties": { "name": "Ponachem", "name:en": null, "amenity": "pharmacy", "building": null, "healthcare": null, "healthcare:speciality": null, "operator:type": "unknown", "capacity:persons": null, "addr:full": null, "addr:city": null, "source": null, "name:sw": null, "osm_id": 8074036780, "osm_type": "nodes" }, "geometry": { "type": "Point", "coordinates": [ 36.7508051, -1.2782753 ] } },
{ "type": "Feature", "properties": { "name": null, "name:en": null, "amenity": "pharmacy", "building": null, "healthcare": null, "healthcare:speciality": null, "operator:type": null, "capacity:persons": null, "addr:full": null, "addr:city": null, "source": null, "name:sw": null, "osm_id": 1500016847, "osm_type": "nodes" }, "geometry": { "type": "Point", "coordinates": [ 36.8484894, -1.3147887 ] } },
{ "type": "Feature", "properties": { "name": "Kam Pharmacy Ltd", "name:en": null, "amenity": "pharmacy", "building": null, "healthcare": "pharmacy", "healthcare:speciality": null, "operator:type": null, "capacity:persons": null, "addr:full": null, "addr:city": "Nairobi", "source": null, "name:sw": null, "osm_id": 5540761517, "osm_type": "nodes" }, "geometry": { "type": "Point", "coordinates": [ 36.8042579, -1.265064 ] } },
{ "type": "Feature", "properties": { "name": "Goodlife Westgate", "name:en": null, "amenity": "pharmacy", "building": null, "healthcare": "pharmacy", "healthcare:speciality": null, "operator:type": null, "capacity:persons": null, "addr:full": null, "addr:city": "Nairobi", "source": null, "name:sw": null, "osm_id": 5340559317, "osm_type": "nodes" }, "geometry": { "type": "Point", "coordinates": [ 36.8034933, -1.2571908 ] } },
{ "type": "Feature", "properties": { "name": "Malibu Pharmacy Ltd", "name:en": null, "amenity": "pharmacy", "building": null, "healthcare": "pharmacy", "healthcare:speciality": null, "operator:type": null, "capacity:persons": null, "addr:full": null, "addr:city": "Nairobi", "source": null, "name:sw": null, "osm_id": 5555072714, "osm_type": "nodes" }, "geometry": { "type": "Point", "coordinates": [ 36.8231542, -1.2851367 ] } },
{ "type": "Feature", "properties": { "name": "Ngombeni Dispensary", "name:en": null, "amenity": "hospital", "building": null, "healthcare": null, "healthcare:speciality": null, "operator:type": "ministry_of_health", "capacity:persons": null, "addr:full": null, "addr:city": null, "source": null, "name:sw": null, "osm_id": 1491229610, "osm_type": "nodes" }, "geometry": { "type": "Point", "coordinates": [ 39.6323544, -4.1281527 ] } },
{ "type": "Feature", "properties": { "name": "Ibrahim Ure Dispensary", "name:en": null, "amenity": "clinic", "building": null, "healthcare": null, "healthcare:speciality": null, "operator:type": null, "capacity:persons": null, "addr:full": null, "addr:city": null, "source": null, "name:sw": null, "osm_id": 3781927483, "osm_type": "nodes" }, "geometry": { "type": "Point", "coordinates": [ 40.6104444, 1.580115 ] } },
{ "type": "Feature", "properties": { "name": "Argane Dispensary", "name:en": null, "amenity": "clinic", "building": null, "healthcare": null, "healthcare:speciality": null, "operator:type": null, "capacity:persons": null, "addr:full": null, "addr:city": null, "source": null, "name:sw": null, "osm_id": 3781927480, "osm_type": "nodes" }, "geometry": { "type": "Point", "coordinates": [ 40.3603168, 1.6694266 ] } },
{ "type": "Feature", "properties": { "name": "Dawa house", "name:en": null, "amenity": "pharmacy", "building": null, "healthcare": null, "healthcare:speciality": null, "operator:type": null, "capacity:persons": null, "addr:full": null, "addr:city": null, "source": null, "name:sw": null, "osm_id": 8021720087, "osm_type": "nodes" }, "geometry": { "type": "Point", "coordinates": [ 36.8619418, -1.2583877 ] } },
{ "type": "Feature", "properties": { "name": "Riders medical centre", "name:en": null, "amenity": "pharmacy", "building": null, "healthcare": null, "healthcare:speciality": null, "operator:type": null, "capacity:persons": null, "addr:full": null, "addr:city": null, "source": null, "name:sw": null, "osm_id": 1446059335, "osm_type": "nodes" }, "geometry": { "type": "Point", "coordinates": [ 36.8757267, -1.3098851 ] } },
{ "type": "Feature", "properties": { "name": "clinic", "name:en": null, "amenity": "hospital", "building": null, "healthcare": "hospital", "healthcare:speciality": null, "operator:type": null, "capacity:persons": null, "addr:full": null, "addr:city": null, "source": null, "name:sw": null, "osm_id": 9724227375, "osm_type": "nodes" }, "geometry": { "type": "Point", "coordinates": [ 37.8027662, 0.0148724 ] } },
{ "type": "Feature", "properties": { "name": "Mara health centre", "name:en": null, "amenity": "pharmacy", "building": null, "healthcare": null, "healthcare:speciality": null, "operator:type": null, "capacity:persons": null, "addr:full": null, "addr:city": null, "source": null, "name:sw": null, "osm_id": 1432508012, "osm_type": "nodes" }, "geometry": { "type": "Point", "coordinates": [ 36.8762103, -1.3162694 ] } },
{ "type": "Feature", "properties": { "name": "P.M.C. medical clinic", "name:en": null, "amenity": "pharmacy", "building": null, "healthcare": null, "healthcare:speciality": null, "operator:type": null, "capacity:persons": null, "addr:full": null, "addr:city": null, "source": null, "name:sw": null, "osm_id": 1432508035, "osm_type": "nodes" }, "geometry": { "type": "Point", "coordinates": [ 36.8757343, -1.314165 ] } },
{ "type": "Feature", "properties": { "name": "Bark Chemist Ltd", "name:en": null, "amenity": "pharmacy", "building": null, "healthcare": "pharmacy", "healthcare:speciality": null, "operator:type": null, "capacity:persons": null, "addr:full": null, "addr:city": "Nakuru", "source": null, "name:sw": null, "osm_id": 5903940839, "osm_type": "nodes" }, "geometry": { "type": "Point", "coordinates": [ 36.073849, -0.2831638 ] } },
{ "type": "Feature", "properties": { "name": "St Teresa Medical Clinic", "name:en": null, "amenity": "hospital", "building": null, "healthcare": null, "healthcare:speciality": null, "operator:type": null, "capacity:persons": null, "addr:full": null, "addr:city": null, "source": null, "name:sw": null, "osm_id": 1419005001, "osm_type": "nodes" }, "geometry": { "type": "Point", "coordinates": [ 36.8859079, -1.3153006 ] } },
{ "type": "Feature", "properties": { "name": "Vision View Medical Services", "name:en": null, "amenity": "pharmacy", "building": null, "healthcare": null, "healthcare:speciality": null, "operator:type": null, "capacity:persons": null, "addr:full": null, "addr:city": null, "source": null, "name:sw": null, "osm_id": 1417918727, "osm_type": "nodes" }, "geometry": { "type": "Point", "coordinates": [ 36.8845362, -1.3139841 ] } },
{ "type": "Feature", "properties": { "name": "Kingori Medical Centre", "name:en": null, "amenity": "pharmacy", "building": null, "healthcare": null, "healthcare:speciality": null, "operator:type": null, "capacity:persons": null, "addr:full": null, "addr:city": null, "source": null, "name:sw": null, "osm_id": 878846165, "osm_type": "nodes" }, "geometry": { "type": "Point", "coordinates": [ 36.8844286, -1.3185045 ] } },
{ "type": "Feature", "properties": { "name": "Mediva Chemist", "name:en": null, "amenity": "pharmacy", "building": null, "healthcare": null, "healthcare:speciality": null, "operator:type": null, "capacity:persons": null, "addr:full": null, "addr:city": null, "source": null, "name:sw": null, "osm_id": 1417861337, "osm_type": "nodes" }, "geometry": { "type": "Point", "coordinates": [ 36.8820091, -1.3181185 ] } },
{ "type": "Feature", "properties": { "name": "Mukuru Medical Clinic", "name:en": null, "amenity": "hospital", "building": null, "healthcare": null, "healthcare:speciality": null, "operator:type": null, "capacity:persons": null, "addr:full": null, "addr:city": null, "source": null, "name:sw": null, "osm_id": 1419101746, "osm_type": "nodes" }, "geometry": { "type": "Point", "coordinates": [ 36.8871647, -1.3222884 ] } },
{ "type": "Feature", "properties": { "name": "Scion Health care", "name:en": null, "amenity": "hospital", "building": null, "healthcare": null, "healthcare:speciality": null, "operator:type": null, "capacity:persons": null, "addr:full": null, "addr:city": null, "source": null, "name:sw": null, "osm_id": 1419101775, "osm_type": "nodes" }, "geometry": { "type": "Point", "coordinates": [ 36.8921922, -1.3279842 ] } },
{ "type": "Feature", "properties": { "name": "Unity Medical Services", "name:en": null, "amenity": "pharmacy", "building": null, "healthcare": null, "healthcare:speciality": null, "operator:type": null, "capacity:persons": null, "addr:full": null, "addr:city": null, "source": null, "name:sw": null, "osm_id": 1417918726, "osm_type": "nodes" }, "geometry": { "type": "Point", "coordinates": [ 36.8836506, -1.3153677 ] } },
{ "type": "Feature", "properties": { "name": "Riverside Medical", "name:en": null, "amenity": "pharmacy", "building": null, "healthcare": null, "healthcare:speciality": null, "operator:type": null, "capacity:persons": null, "addr:full": null, "addr:city": null, "source": null, "name:sw": null, "osm_id": 914492970, "osm_type": "nodes" }, "geometry": { "type": "Point", "coordinates": [ 36.8800836, -1.3170613 ] } },
{ "type": "Feature", "properties": { "name": "Imani Health Chemist", "name:en": null, "amenity": "pharmacy", "building": null, "healthcare": null, "healthcare:speciality": null, "operator:type": null, "capacity:persons": null, "addr:full": null, "addr:city": null, "source": null, "name:sw": null, "osm_id": 1417861348, "osm_type": "nodes" }, "geometry": { "type": "Point", "coordinates": [ 36.8823115, -1.3181559 ] } },
{ "type": "Feature", "properties": { "name": "Glorious Chemist", "name:en": null, "amenity": "pharmacy", "building": null, "healthcare": null, "healthcare:speciality": null, "operator:type": null, "capacity:persons": null, "addr:full": null, "addr:city": null, "source": null, "name:sw": null, "osm_id": 8006305785, "osm_type": "nodes" }, "geometry": { "type": "Point", "coordinates": [ 36.8596934, -1.2616575 ] } },
{ "type": "Feature", "properties": { "name": "Moi Teaching & Referal Hospital Physiotherapy", "name:en": null, "amenity": "hospital", "building": null, "healthcare": null, "healthcare:speciality": null, "operator:type": null, "capacity:persons": null, "addr:full": null, "addr:city": "eldoret", "source": null, "name:sw": null, "osm_id": 2667364486, "osm_type": "nodes" }, "geometry": { "type": "Point", "coordinates": [ 35.2815791, 0.5125889 ] } },
{ "type": "Feature", "properties": { "name": "Salawa Catholic Private Health Clinic", "name:en": null, "amenity": "clinic", "building": null, "healthcare": null, "healthcare:speciality": null, "operator:type": null, "capacity:persons": null, "addr:full": null, "addr:city": null, "source": null, "name:sw": null, "osm_id": 5779197183, "osm_type": "nodes" }, "geometry": { "type": "Point", "coordinates": [ 35.6644704, 0.4913171 ] } },
{ "type": "Feature", "properties": { "name": "Kapkokwon Dispensary", "name:en": null, "amenity": "clinic", "building": null, "healthcare": null, "healthcare:speciality": null, "operator:type": null, "capacity:persons": null, "addr:full": null, "addr:city": null, "source": null, "name:sw": null, "osm_id": 5779623115, "osm_type": "nodes" }, "geometry": { "type": "Point", "coordinates": [ 35.7161572, 0.5464468 ] } },
{ "type": "Feature", "properties": { "name": "Sochigaa Chemist", "name:en": null, "amenity": "pharmacy", "building": null, "healthcare": null, "healthcare:speciality": null, "operator:type": null, "capacity:persons": null, "addr:full": null, "addr:city": null, "source": null, "name:sw": null, "osm_id": 5781492707, "osm_type": "nodes" }, "geometry": { "type": "Point", "coordinates": [ 35.7424965, 0.4914678 ] } },
{ "type": "Feature", "properties": { "name": "Begat Chemist", "name:en": null, "amenity": "pharmacy", "building": null, "healthcare": "pharmacy", "healthcare:speciality": null, "operator:type": "private", "capacity:persons": null, "addr:full": null, "addr:city": null, "source": null, "name:sw": null, "osm_id": 7321454586, "osm_type": "nodes" }, "geometry": { "type": "Point", "coordinates": [ 36.6636192, -1.2450449 ] } },
{ "type": "Feature", "properties": { "name": "Dental", "name:en": null, "amenity": "dentist", "building": null, "healthcare": "dentist", "healthcare:speciality": null, "operator:type": "private", "capacity:persons": null, "addr:full": null, "addr:city": null, "source": null, "name:sw": null, "osm_id": 7321492687, "osm_type": "nodes" }, "geometry": { "type": "Point", "coordinates": [ 36.662938, -1.2454071 ] } },
{ "type": "Feature", "properties": { "name": "LUC Pharmacy", "name:en": null, "amenity": "pharmacy", "building": null, "healthcare": "pharmacy", "healthcare:speciality": null, "operator:type": null, "capacity:persons": null, "addr:full": null, "addr:city": null, "source": null, "name:sw": null, "osm_id": 7321383085, "osm_type": "nodes" }, "geometry": { "type": "Point", "coordinates": [ 36.664474, -1.2445783 ] } },
{ "type": "Feature", "properties": { "name": "Precise Clinic Laboratory", "name:en": null, "amenity": "clinic", "building": null, "healthcare": "laboratory", "healthcare:speciality": null, "operator:type": "private", "capacity:persons": null, "addr:full": null, "addr:city": null, "source": null, "name:sw": null, "osm_id": 7321385686, "osm_type": "nodes" }, "geometry": { "type": "Point", "coordinates": [ 36.6648115, -1.2447201 ] } },
{ "type": "Feature", "properties": { "name": "Plan Med Health Services", "name:en": null, "amenity": "clinic", "building": null, "healthcare": "clinic", "healthcare:speciality": null, "operator:type": "private", "capacity:persons": null, "addr:full": null, "addr:city": null, "source": null, "name:sw": null, "osm_id": 7321424685, "osm_type": "nodes" }, "geometry": { "type": "Point", "coordinates": [ 36.6646981, -1.2447017 ] } },
{ "type": "Feature", "properties": { "name": "Figtree Optical", "name:en": null, "amenity": "clinic", "building": null, "healthcare": null, "healthcare:speciality": null, "operator:type": null, "capacity:persons": null, "addr:full": null, "addr:city": null, "source": null, "name:sw": null, "osm_id": 5781632989, "osm_type": "nodes" }, "geometry": { "type": "Point", "coordinates": [ 35.7432765, 0.4930083 ] } },
{ "type": "Feature", "properties": { "name": "Lelbel Chemist", "name:en": null, "amenity": "pharmacy", "building": null, "healthcare": null, "healthcare:speciality": null, "operator:type": null, "capacity:persons": null, "addr:full": null, "addr:city": null, "source": null, "name:sw": null, "osm_id": 5817722224, "osm_type": "nodes" }, "geometry": { "type": "Point", "coordinates": [ 35.7421778, 0.4924073 ] } },
{ "type": "Feature", "properties": { "name": "Mission Hospital", "name:en": null, "amenity": "clinic", "building": "Dispensary", "healthcare": null, "healthcare:speciality": null, "operator:type": null, "capacity:persons": null, "addr:full": null, "addr:city": null, "source": null, "name:sw": null, "osm_id": 5820197019, "osm_type": "nodes" }, "geometry": { "type": "Point", "coordinates": [ 35.7240953, 0.0412042 ] } },
{ "type": "Feature", "properties": { "name": "Longonot Chemist", "name:en": null, "amenity": "pharmacy", "building": null, "healthcare": null, "healthcare:speciality": null, "operator:type": null, "capacity:persons": null, "addr:full": null, "addr:city": null, "source": null, "name:sw": null, "osm_id": 5641420323, "osm_type": "nodes" }, "geometry": { "type": "Point", "coordinates": [ 37.4469354, -1.6629221 ] } },
{ "type": "Feature", "properties": { "name": "Mission Hospital", "name:en": null, "amenity": "clinic", "building": "Dispensary", "healthcare": null, "healthcare:speciality": null, "operator:type": null, "capacity:persons": null, "addr:full": null, "addr:city": null, "source": null, "name:sw": null, "osm_id": 5798730246, "osm_type": "nodes" }, "geometry": { "type": "Point", "coordinates": [ 35.7240953, 0.0412042 ] } },
{ "type": "Feature", "properties": { "name": "Mathare Edarp", "name:en": null, "amenity": "clinic", "building": null, "healthcare": null, "healthcare:speciality": null, "operator:type": "ngo", "capacity:persons": null, "addr:full": null, "addr:city": null, "source": null, "name:sw": null, "osm_id": 7952200605, "osm_type": "nodes" }, "geometry": { "type": "Point", "coordinates": [ 36.8568527, -1.2656044 ] } },
{ "type": "Feature", "properties": { "name": "Pona", "name:en": null, "amenity": "clinic", "building": null, "healthcare": null, "healthcare:speciality": null, "operator:type": "private", "capacity:persons": null, "addr:full": null, "addr:city": null, "source": null, "name:sw": null, "osm_id": 7952200616, "osm_type": "nodes" }, "geometry": { "type": "Point", "coordinates": [ 36.8604017, -1.2617117 ] } },
{ "type": "Feature", "properties": { "name": "Rhodics", "name:en": null, "amenity": "clinic", "building": null, "healthcare": null, "healthcare:speciality": null, "operator:type": "private", "capacity:persons": null, "addr:full": null, "addr:city": null, "source": null, "name:sw": null, "osm_id": 7952200618, "osm_type": "nodes" }, "geometry": { "type": "Point", "coordinates": [ 36.8623167, -1.2582983 ] } },
{ "type": "Feature", "properties": { "name": "Dan's medical center", "name:en": null, "amenity": "clinic", "building": null, "healthcare": null, "healthcare:speciality": null, "operator:type": "private", "capacity:persons": null, "addr:full": null, "addr:city": null, "source": null, "name:sw": null, "osm_id": 4503852990, "osm_type": "nodes" }, "geometry": { "type": "Point", "coordinates": [ 36.8553455, -1.262622 ] } },
{ "type": "Feature", "properties": { "name": "Arawelo Medical Centre Limited", "name:en": null, "amenity": "clinic", "building": null, "healthcare": "hospital", "healthcare:speciality": "gynaecology", "operator:type": null, "capacity:persons": null, "addr:full": null, "addr:city": null, "source": null, "name:sw": null, "osm_id": 8415831218, "osm_type": "nodes" }, "geometry": { "type": "Point", "coordinates": [ 36.8236578, -1.3205639 ] } },
{ "type": "Feature", "properties": { "name": "Thunguma Medical Clinic", "name:en": null, "amenity": "hospital", "building": null, "healthcare": null, "healthcare:speciality": null, "operator:type": null, "capacity:persons": null, "addr:full": null, "addr:city": null, "source": null, "name:sw": null, "osm_id": 1170757964, "osm_type": "nodes" }, "geometry": { "type": "Point", "coordinates": [ 36.9857235, -0.4382609 ] } },
{ "type": "Feature", "properties": { "name": "Mida Majaoni Commu nity Dispensary", "name:en": null, "amenity": "clinic", "building": null, "healthcare": null, "healthcare:speciality": null, "operator:type": null, "capacity:persons": null, "addr:full": null, "addr:city": null, "source": null, "name:sw": null, "osm_id": 5751493136, "osm_type": "nodes" }, "geometry": { "type": "Point", "coordinates": [ 39.9201499, -3.34979 ] } },
{ "type": "Feature", "properties": { "name": "Access Afya Medical Clinic", "name:en": null, "amenity": "clinic", "building": null, "healthcare": "clinic", "healthcare:speciality": "clinic;community", "operator:type": null, "capacity:persons": null, "addr:full": null, "addr:city": null, "source": null, "name:sw": null, "osm_id": 5594850571, "osm_type": "nodes" }, "geometry": { "type": "Point", "coordinates": [ 36.8784574, -1.3093421 ] } },
{ "type": "Feature", "properties": { "name": "Rafiki Kenia Health Centre", "name:en": null, "amenity": "hospital", "building": null, "healthcare": "hospital", "healthcare:speciality": null, "operator:type": null, "capacity:persons": null, "addr:full": null, "addr:city": null, "source": null, "name:sw": null, "osm_id": 7922869244, "osm_type": "nodes" }, "geometry": { "type": "Point", "coordinates": [ 39.5224524, -4.4000319 ] } },
{ "type": "Feature", "properties": { "name": "bomu hospital", "name:en": null, "amenity": "hospital", "building": null, "healthcare": "hospital", "healthcare:speciality": null, "operator:type": null, "capacity:persons": null, "addr:full": null, "addr:city": null, "source": null, "name:sw": null, "osm_id": 12542069401, "osm_type": "nodes" }, "geometry": { "type": "Point", "coordinates": [ 39.6175187, -4.0272174 ] } },
{ "type": "Feature", "properties": { "name": "Chemist", "name:en": null, "amenity": "pharmacy", "building": null, "healthcare": null, "healthcare:speciality": null, "operator:type": null, "capacity:persons": null, "addr:full": null, "addr:city": null, "source": null, "name:sw": null, "osm_id": 1446059231, "osm_type": "nodes" }, "geometry": { "type": "Point", "coordinates": [ 36.8683438, -1.3161969 ] } },
{ "type": "Feature", "properties": { "name": "Flodo medical clinic", "name:en": null, "amenity": "pharmacy", "building": null, "healthcare": null, "healthcare:speciality": null, "operator:type": null, "capacity:persons": null, "addr:full": null, "addr:city": null, "source": null, "name:sw": null, "osm_id": 1446059245, "osm_type": "nodes" }, "geometry": { "type": "Point", "coordinates": [ 36.8747211, -1.3101345 ] } },
{ "type": "Feature", "properties": { "name": "clinic", "name:en": null, "amenity": "pharmacy", "building": null, "healthcare": null, "healthcare:speciality": null, "operator:type": null, "capacity:persons": null, "addr:full": null, "addr:city": null, "source": null, "name:sw": null, "osm_id": 1446059260, "osm_type": "nodes" }, "geometry": { "type": "Point", "coordinates": [ 36.868187, -1.3148491 ] } },
{ "type": "Feature", "properties": { "name": "Col-phrm chemist", "name:en": null, "amenity": "pharmacy", "building": null, "healthcare": null, "healthcare:speciality": null, "operator:type": null, "capacity:persons": null, "addr:full": null, "addr:city": null, "source": null, "name:sw": null, "osm_id": 1432507889, "osm_type": "nodes" }, "geometry": { "type": "Point", "coordinates": [ 36.8768954, -1.3168413 ] } },
{ "type": "Feature", "properties": { "name": "St. Mathias medical clinic", "name:en": null, "amenity": "pharmacy", "building": null, "healthcare": null, "healthcare:speciality": null, "operator:type": null, "capacity:persons": null, "addr:full": null, "addr:city": null, "source": null, "name:sw": null, "osm_id": 1432508057, "osm_type": "nodes" }, "geometry": { "type": "Point", "coordinates": [ 36.8758475, -1.3162037 ] } },
{ "type": "Feature", "properties": { "name": "Tumaini comm health service", "name:en": null, "amenity": "pharmacy", "building": null, "healthcare": null, "healthcare:speciality": null, "operator:type": null, "capacity:persons": null, "addr:full": null, "addr:city": null, "source": null, "name:sw": null, "osm_id": 1432508063, "osm_type": "nodes" }, "geometry": { "type": "Point", "coordinates": [ 36.8749513, -1.3155453 ] } },
{ "type": "Feature", "properties": { "name": "wadani hospital", "name:en": null, "amenity": "pharmacy", "building": null, "healthcare": null, "healthcare:speciality": null, "operator:type": null, "capacity:persons": null, "addr:full": null, "addr:city": null, "source": null, "name:sw": null, "osm_id": 1432508108, "osm_type": "nodes" }, "geometry": { "type": "Point", "coordinates": [ 36.8734433, -1.3189993 ] } },
{ "type": "Feature", "properties": { "name": "Assumption Sister's Clinic", "name:en": null, "amenity": "clinic", "building": null, "healthcare": null, "healthcare:speciality": null, "operator:type": null, "capacity:persons": null, "addr:full": null, "addr:city": null, "source": null, "name:sw": null, "osm_id": 5641419309, "osm_type": "nodes" }, "geometry": { "type": "Point", "coordinates": [ 37.442025, -1.6578742 ] } },
{ "type": "Feature", "properties": { "name": "Kombosang Dispensary", "name:en": null, "amenity": "hospital", "building": null, "healthcare": "hospital", "healthcare:speciality": null, "operator:type": "government", "capacity:persons": null, "addr:full": null, "addr:city": null, "source": null, "name:sw": null, "osm_id": 3674800601, "osm_type": "nodes" }, "geometry": { "type": "Point", "coordinates": [ 35.7500485, 0.771413 ] } },
{ "type": "Feature", "properties": { "name": "High Dependency Unit", "name:en": null, "amenity": "hospital", "building": null, "healthcare": null, "healthcare:speciality": null, "operator:type": null, "capacity:persons": null, "addr:full": null, "addr:city": null, "source": null, "name:sw": null, "osm_id": 5588163890, "osm_type": "nodes" }, "geometry": { "type": "Point", "coordinates": [ 37.6271261, -1.7836761 ] } },
{ "type": "Feature", "properties": { "name": "Kasarani Medical Clinic", "name:en": null, "amenity": "clinic", "building": null, "healthcare": null, "healthcare:speciality": null, "operator:type": null, "capacity:persons": null, "addr:full": null, "addr:city": null, "source": null, "name:sw": null, "osm_id": 5594269121, "osm_type": "nodes" }, "geometry": { "type": "Point", "coordinates": [ 37.6294525, -1.7784952 ] } },
{ "type": "Feature", "properties": { "name": "The Aga Khan University Hospital", "name:en": null, "amenity": "clinic", "building": null, "healthcare": "clinic", "healthcare:speciality": null, "operator:type": null, "capacity:persons": null, "addr:full": null, "addr:city": "Nairobi", "source": null, "name:sw": null, "osm_id": 5555073806, "osm_type": "nodes" }, "geometry": { "type": "Point", "coordinates": [ 36.8220131, -1.285773 ] } },
{ "type": "Feature", "properties": { "name": "Mater Hospital", "name:en": null, "amenity": "clinic", "building": null, "healthcare": "clinic", "healthcare:speciality": null, "operator:type": null, "capacity:persons": null, "addr:full": null, "addr:city": "Nairobi", "source": null, "name:sw": null, "osm_id": 5555074074, "osm_type": "nodes" }, "geometry": { "type": "Point", "coordinates": [ 36.8272955, -1.2879739 ] } },
{ "type": "Feature", "properties": { "name": "Nairobi Outpatient Centre Ltd", "name:en": null, "amenity": "clinic", "building": null, "healthcare": "clinic", "healthcare:speciality": null, "operator:type": null, "capacity:persons": null, "addr:full": null, "addr:city": "Nairobi", "source": null, "name:sw": null, "osm_id": 5552467940, "osm_type": "nodes" }, "geometry": { "type": "Point", "coordinates": [ 36.8187332, -1.2804367 ] } },
{ "type": "Feature", "properties": { "name": "Singiraini Dispensary", "name:en": null, "amenity": null, "building": null, "healthcare": "yes", "healthcare:speciality": null, "operator:type": null, "capacity:persons": null, "addr:full": null, "addr:city": null, "source": null, "name:sw": null, "osm_id": 11351358787, "osm_type": "nodes" }, "geometry": { "type": "Point", "coordinates": [ 36.4891235, -1.9279278 ] } },
{ "type": "Feature", "properties": { "name": "Racecourse", "name:en": null, "amenity": "hospital", "building": null, "healthcare": null, "healthcare:speciality": null, "operator:type": null, "capacity:persons": null, "addr:full": null, "addr:city": null, "source": null, "name:sw": null, "osm_id": 5547653730, "osm_type": "nodes" }, "geometry": { "type": "Point", "coordinates": [ 35.2593967, 0.46388 ] } },
{ "type": "Feature", "properties": { "name": "Neigbourhood chemist", "name:en": null, "amenity": "pharmacy", "building": null, "healthcare": null, "healthcare:speciality": null, "operator:type": null, "capacity:persons": null, "addr:full": null, "addr:city": null, "source": null, "name:sw": null, "osm_id": 1038202692, "osm_type": "nodes" }, "geometry": { "type": "Point", "coordinates": [ 36.8619385, -1.2584587 ] } },
{ "type": "Feature", "properties": { "name": "Taiba", "name:en": null, "amenity": "clinic", "building": null, "healthcare": "clinic", "healthcare:speciality": "general", "operator:type": null, "capacity:persons": null, "addr:full": null, "addr:city": "Nairobi", "source": null, "name:sw": null, "osm_id": 5475093964, "osm_type": "nodes" }, "geometry": { "type": "Point", "coordinates": [ 36.8308818, -1.2757375 ] } },
{ "type": "Feature", "properties": { "name": "Mbugiti dispensary", "name:en": null, "amenity": "clinic", "building": null, "healthcare": null, "healthcare:speciality": null, "operator:type": null, "capacity:persons": null, "addr:full": null, "addr:city": null, "source": null, "name:sw": null, "osm_id": 10223024068, "osm_type": "nodes" }, "geometry": { "type": "Point", "coordinates": [ 36.8232751, -0.83609 ] } },
{ "type": "Feature", "properties": { "name": "Karangi dispensary", "name:en": null, "amenity": "clinic", "building": null, "healthcare": null, "healthcare:speciality": null, "operator:type": null, "capacity:persons": null, "addr:full": null, "addr:city": null, "source": null, "name:sw": null, "osm_id": 10223024088, "osm_type": "nodes" }, "geometry": { "type": "Point", "coordinates": [ 36.7987918, -0.8308119 ] } },
{ "type": "Feature", "properties": { "name": "Ndakaini dispensary", "name:en": null, "amenity": "clinic", "building": null, "healthcare": null, "healthcare:speciality": null, "operator:type": null, "capacity:persons": null, "addr:full": null, "addr:city": null, "source": null, "name:sw": null, "osm_id": 10223024096, "osm_type": "nodes" }, "geometry": { "type": "Point", "coordinates": [ 36.8399477, -0.8265637 ] } },
{ "type": "Feature", "properties": { "name": "Korogocho Health Centre", "name:en": null, "amenity": "clinic", "building": null, "healthcare": "clinic", "healthcare:speciality": null, "operator:type": null, "capacity:persons": null, "addr:full": null, "addr:city": null, "source": null, "name:sw": null, "osm_id": 8891905581, "osm_type": "nodes" }, "geometry": { "type": "Point", "coordinates": [ 36.8892, -1.2517 ] } },
{ "type": "Feature", "properties": { "name": "Vission Medical clinic and maternity", "name:en": null, "amenity": "clinic", "building": null, "healthcare": "clinic", "healthcare:speciality": null, "operator:type": null, "capacity:persons": null, "addr:full": null, "addr:city": null, "source": null, "name:sw": null, "osm_id": 8891905584, "osm_type": "nodes" }, "geometry": { "type": "Point", "coordinates": [ 36.8898, -1.25023 ] } },
{ "type": "Feature", "properties": { "name": "Provide International Korogocho", "name:en": null, "amenity": "clinic", "building": null, "healthcare": "clinic", "healthcare:speciality": null, "operator:type": null, "capacity:persons": null, "addr:full": null, "addr:city": null, "source": null, "name:sw": null, "osm_id": 8891905585, "osm_type": "nodes" }, "geometry": { "type": "Point", "coordinates": [ 36.8885, -1.25026 ] } },
{ "type": "Feature", "properties": { "name": "Palmland", "name:en": null, "amenity": "pharmacy", "building": null, "healthcare": null, "healthcare:speciality": null, "operator:type": null, "capacity:persons": null, "addr:full": null, "addr:city": null, "source": null, "name:sw": null, "osm_id": 979391490, "osm_type": "nodes" }, "geometry": { "type": "Point", "coordinates": [ 39.8531981, -3.6306824 ] } },
{ "type": "Feature", "properties": { "name": "Yaya Chemists Limited", "name:en": null, "amenity": "pharmacy", "building": null, "healthcare": "pharmacy", "healthcare:speciality": null, "operator:type": null, "capacity:persons": null, "addr:full": null, "addr:city": "Nairobi", "source": null, "name:sw": null, "osm_id": 5414280550, "osm_type": "nodes" }, "geometry": { "type": "Point", "coordinates": [ 36.7879814, -1.2928902 ] } },
{ "type": "Feature", "properties": { "name": "Aga Khan University Hospital Medical Centre", "name:en": null, "amenity": "clinic", "building": null, "healthcare": "clinic", "healthcare:speciality": null, "operator:type": null, "capacity:persons": null, "addr:full": null, "addr:city": "Nairobi", "source": null, "name:sw": null, "osm_id": 5334918491, "osm_type": "nodes" }, "geometry": { "type": "Point", "coordinates": [ 36.7702909, -1.2908247 ] } },
{ "type": "Feature", "properties": { "name": "Cheptuech dispensary", "name:en": null, "amenity": "clinic", "building": null, "healthcare": null, "healthcare:speciality": null, "operator:type": null, "capacity:persons": null, "addr:full": null, "addr:city": null, "source": null, "name:sw": null, "osm_id": 10223314855, "osm_type": "nodes" }, "geometry": { "type": "Point", "coordinates": [ 35.645501, -0.590274 ] } },
{ "type": "Feature", "properties": { "name": "Machikine dispensary", "name:en": null, "amenity": "clinic", "building": null, "healthcare": null, "healthcare:speciality": null, "operator:type": null, "capacity:persons": null, "addr:full": null, "addr:city": null, "source": null, "name:sw": null, "osm_id": 10223181473, "osm_type": "nodes" }, "geometry": { "type": "Point", "coordinates": [ 37.6115227, -0.0912165 ] } },
{ "type": "Feature", "properties": { "name": "Melihep Medical Clinic", "name:en": null, "amenity": "dentist", "building": null, "healthcare": "dentist", "healthcare:speciality": null, "operator:type": null, "capacity:persons": null, "addr:full": null, "addr:city": null, "source": null, "name:sw": null, "osm_id": 8895109583, "osm_type": "nodes" }, "geometry": { "type": "Point", "coordinates": [ 36.8704, -1.31069 ] } },
{ "type": "Feature", "properties": { "name": "Paradise Medical Center", "name:en": null, "amenity": "dentist", "building": null, "healthcare": "dentist", "healthcare:speciality": null, "operator:type": null, "capacity:persons": null, "addr:full": null, "addr:city": null, "source": null, "name:sw": null, "osm_id": 8895109584, "osm_type": "nodes" }, "geometry": { "type": "Point", "coordinates": [ 36.8707, -1.31074 ] } },
{ "type": "Feature", "properties": { "name": "Wanyaga dispensary", "name:en": null, "amenity": "clinic", "building": null, "healthcare": null, "healthcare:speciality": null, "operator:type": null, "capacity:persons": null, "addr:full": null, "addr:city": null, "source": null, "name:sw": null, "osm_id": 10223024092, "osm_type": "nodes" }, "geometry": { "type": "Point", "coordinates": [ 36.8145418, -0.8115235 ] } },
{ "type": "Feature", "properties": { "name": "Family Medical Care Center", "name:en": null, "amenity": "pharmacy", "building": null, "healthcare": "pharmacy", "healthcare:speciality": null, "operator:type": null, "capacity:persons": null, "addr:full": null, "addr:city": null, "source": null, "name:sw": null, "osm_id": 8894604381, "osm_type": "nodes" }, "geometry": { "type": "Point", "coordinates": [ 36.8644, -1.3119 ] } },
{ "type": "Feature", "properties": { "name": "Rehema chemist", "name:en": null, "amenity": "pharmacy", "building": null, "healthcare": "pharmacy", "healthcare:speciality": null, "operator:type": null, "capacity:persons": null, "addr:full": null, "addr:city": null, "source": null, "name:sw": null, "osm_id": 8894604382, "osm_type": "nodes" }, "geometry": { "type": "Point", "coordinates": [ 36.863, -1.31389 ] } },
{ "type": "Feature", "properties": { "name": "Katope Medical Clinic", "name:en": null, "amenity": "pharmacy", "building": null, "healthcare": null, "healthcare:speciality": null, "operator:type": null, "capacity:persons": null, "addr:full": null, "addr:city": null, "source": null, "name:sw": null, "osm_id": 878846270, "osm_type": "nodes" }, "geometry": { "type": "Point", "coordinates": [ 36.8786013, -1.317285 ] } },
{ "type": "Feature", "properties": { "name": "Faith healer", "name:en": null, "amenity": "*", "building": null, "healthcare": "alternative", "healthcare:speciality": null, "operator:type": null, "capacity:persons": null, "addr:full": null, "addr:city": null, "source": null, "name:sw": null, "osm_id": 8891997081, "osm_type": "nodes" }, "geometry": { "type": "Point", "coordinates": [ 36.889, -1.2537 ] } },
{ "type": "Feature", "properties": { "name": "Dr. Samwel (Herbalist)", "name:en": null, "amenity": "*", "building": null, "healthcare": "alternative", "healthcare:speciality": null, "operator:type": null, "capacity:persons": null, "addr:full": null, "addr:city": null, "source": null, "name:sw": null, "osm_id": 8891997073, "osm_type": "nodes" }, "geometry": { "type": "Point", "coordinates": [ 36.8922, -1.24983 ] } },
{ "type": "Feature", "properties": { "name": "access afya clinic", "name:en": null, "amenity": "clinic", "building": null, "healthcare": "clinic", "healthcare:speciality": null, "operator:type": null, "capacity:persons": null, "addr:full": null, "addr:city": null, "source": null, "name:sw": null, "osm_id": 3856040557, "osm_type": "nodes" }, "geometry": { "type": "Point", "coordinates": [ 36.842793, -1.3109931 ] } },
{ "type": "Feature", "properties": { "name": "Katsutsu Clinic and one world computer college", "name:en": null, "amenity": "hospital", "building": null, "healthcare": null, "healthcare:speciality": null, "operator:type": null, "capacity:persons": null, "addr:full": null, "addr:city": null, "source": null, "name:sw": null, "osm_id": 833388762, "osm_type": "nodes" }, "geometry": { "type": "Point", "coordinates": [ 39.3185366, -4.1375584 ] } },
{ "type": "Feature", "properties": { "name": "Aga Khan University Hospital Medical Centre", "name:en": null, "amenity": "clinic", "building": null, "healthcare": "clinic", "healthcare:speciality": null, "operator:type": null, "capacity:persons": null, "addr:full": null, "addr:city": "Nairobi", "source": null, "name:sw": null, "osm_id": 5414008483, "osm_type": "nodes" }, "geometry": { "type": "Point", "coordinates": [ 36.7877061, -1.3009005 ] } },
{ "type": "Feature", "properties": { "name": "Edarp", "name:en": null, "amenity": "hospital", "building": null, "healthcare": null, "healthcare:speciality": null, "operator:type": "religious", "capacity:persons": null, "addr:full": null, "addr:city": null, "source": "KRCS2024", "name:sw": null, "osm_id": 11802137831, "osm_type": "nodes" }, "geometry": { "type": "Point", "coordinates": [ 36.8556602, -1.2654684 ] } },
{ "type": "Feature", "properties": { "name": "Dinesh Chandaria Medical Centre", "name:en": null, "amenity": "hospital", "building": null, "healthcare": "hospital", "healthcare:speciality": null, "operator:type": null, "capacity:persons": null, "addr:full": null, "addr:city": "Nairobi", "source": null, "name:sw": null, "osm_id": 6225467024, "osm_type": "nodes" }, "geometry": { "type": "Point", "coordinates": [ 36.8114972, -1.2645234 ] } },
{ "type": "Feature", "properties": { "name": null, "name:en": null, "amenity": "pharmacy", "building": null, "healthcare": "pharmacy", "healthcare:speciality": null, "operator:type": null, "capacity:persons": null, "addr:full": null, "addr:city": null, "source": null, "name:sw": null, "osm_id": 12117204297, "osm_type": "nodes" }, "geometry": { "type": "Point", "coordinates": [ 36.9151323, -1.3133257 ] } },
{ "type": "Feature", "properties": { "name": "Comprehensive Care Centre", "name:en": null, "amenity": "clinic", "building": null, "healthcare": "clinic", "healthcare:speciality": null, "operator:type": null, "capacity:persons": null, "addr:full": null, "addr:city": null, "source": null, "name:sw": null, "osm_id": 5383793350, "osm_type": "nodes" }, "geometry": { "type": "Point", "coordinates": [ 36.8083045, -1.3035206 ] } },
{ "type": "Feature", "properties": { "name": "Lords Healthcare Ltd", "name:en": null, "amenity": "pharmacy", "building": null, "healthcare": "pharmacy", "healthcare:speciality": null, "operator:type": null, "capacity:persons": null, "addr:full": null, "addr:city": "Nairobi", "source": null, "name:sw": null, "osm_id": 5378551736, "osm_type": "nodes" }, "geometry": { "type": "Point", "coordinates": [ 36.8160717, -1.2928967 ] } },
{ "type": "Feature", "properties": { "name": "Dr Harun A. Otieno FACC", "name:en": null, "amenity": "clinic", "building": null, "healthcare": "clinic", "healthcare:speciality": null, "operator:type": null, "capacity:persons": null, "addr:full": null, "addr:city": null, "source": null, "name:sw": null, "osm_id": 5340968095, "osm_type": "nodes" }, "geometry": { "type": "Point", "coordinates": [ 36.8249575, -1.2625569 ] } },
{ "type": "Feature", "properties": { "name": "Radiant Group of Hospitals Sportsview", "name:en": null, "amenity": "hospital", "building": null, "healthcare": "hospital", "healthcare:speciality": "gynaecology;general", "operator:type": "private", "capacity:persons": null, "addr:full": null, "addr:city": null, "source": "local knowledge", "name:sw": null, "osm_id": 10600747318, "osm_type": "nodes" }, "geometry": { "type": "Point", "coordinates": [ 36.912543, -1.2225117 ] } },
{ "type": "Feature", "properties": { "name": "Kiambu Sub-County Hospital Staff Houses", "name:en": null, "amenity": "hospital", "building": null, "healthcare": "hospital", "healthcare:speciality": null, "operator:type": null, "capacity:persons": null, "addr:full": null, "addr:city": null, "source": null, "name:sw": null, "osm_id": 5327747903, "osm_type": "nodes" }, "geometry": { "type": "Point", "coordinates": [ 36.8298908, -1.1716327 ] } },
{ "type": "Feature", "properties": { "name": "Kipkitur Dispensary", "name:en": null, "amenity": "clinic", "building": null, "healthcare": "clinic", "healthcare:speciality": null, "operator:type": null, "capacity:persons": null, "addr:full": null, "addr:city": null, "source": null, "name:sw": null, "osm_id": 5327257636, "osm_type": "nodes" }, "geometry": { "type": "Point", "coordinates": [ 36.0027246, 0.0690441 ] } },
{ "type": "Feature", "properties": { "name": "Wauguzi Healthcare", "name:en": null, "amenity": "clinic", "building": null, "healthcare": "clinic", "healthcare:speciality": "general;surgery", "operator:type": null, "capacity:persons": null, "addr:full": null, "addr:city": "Magogoni ward", "source": null, "name:sw": null, "osm_id": 11773404435, "osm_type": "nodes" }, "geometry": { "type": "Point", "coordinates": [ 39.6808114, -4.0233133 ] } },
{ "type": "Feature", "properties": { "name": "Health Gate Hospital", "name:en": null, "amenity": "hospital", "building": null, "healthcare": "hospital", "healthcare:speciality": "gynaecology;paediatrics;radiology", "operator:type": "private", "capacity:persons": null, "addr:full": null, "addr:city": "Nairobi", "source": null, "name:sw": null, "osm_id": 8429563117, "osm_type": "nodes" }, "geometry": { "type": "Point", "coordinates": [ 36.8461108, -1.2796498 ] } },
{ "type": "Feature", "properties": { "name": "lema dispensing chemist", "name:en": null, "amenity": "hospital", "building": null, "healthcare": null, "healthcare:speciality": null, "operator:type": null, "capacity:persons": null, "addr:full": null, "addr:city": null, "source": null, "name:sw": null, "osm_id": 3723146927, "osm_type": "nodes" }, "geometry": { "type": "Point", "coordinates": [ 36.8872415, -1.2545455 ] } },
{ "type": "Feature", "properties": { "name": "Abakore Health center", "name:en": null, "amenity": "hospital", "building": null, "healthcare": null, "healthcare:speciality": null, "operator:type": null, "capacity:persons": null, "addr:full": null, "addr:city": null, "source": null, "name:sw": null, "osm_id": 3713229994, "osm_type": "nodes" }, "geometry": { "type": "Point", "coordinates": [ 39.7131097, 0.6274012 ] } },
{ "type": "Feature", "properties": { "name": "Isaiah Douglas medical center cs", "name:en": null, "amenity": "hospital", "building": null, "healthcare": null, "healthcare:speciality": null, "operator:type": null, "capacity:persons": null, "addr:full": null, "addr:city": null, "source": null, "name:sw": null, "osm_id": 11749623471, "osm_type": "nodes" }, "geometry": { "type": "Point", "coordinates": [ 36.7089685, -1.2597686 ] } },
{ "type": "Feature", "properties": { "name": "Wargadud Dispensary", "name:en": null, "amenity": "clinic", "building": null, "healthcare": null, "healthcare:speciality": null, "operator:type": null, "capacity:persons": null, "addr:full": null, "addr:city": null, "source": null, "name:sw": null, "osm_id": 3702721568, "osm_type": "nodes" }, "geometry": { "type": "Point", "coordinates": [ 40.3617509, 2.305863 ] } },
{ "type": "Feature", "properties": { "name": "Kutulo Health Center", "name:en": null, "amenity": "clinic", "building": null, "healthcare": null, "healthcare:speciality": null, "operator:type": null, "capacity:persons": null, "addr:full": null, "addr:city": null, "source": null, "name:sw": null, "osm_id": 3702498495, "osm_type": "nodes" }, "geometry": { "type": "Point", "coordinates": [ 40.5978108, 2.4089957 ] } },
{ "type": "Feature", "properties": { "name": "Mansa Health Center", "name:en": null, "amenity": "clinic", "building": null, "healthcare": null, "healthcare:speciality": null, "operator:type": null, "capacity:persons": null, "addr:full": null, "addr:city": null, "source": null, "name:sw": null, "osm_id": 3702498503, "osm_type": "nodes" }, "geometry": { "type": "Point", "coordinates": [ 40.2214226, 2.5291197 ] } },
{ "type": "Feature", "properties": { "name": "Sarman Dispensary", "name:en": null, "amenity": "clinic", "building": null, "healthcare": null, "healthcare:speciality": null, "operator:type": null, "capacity:persons": null, "addr:full": null, "addr:city": null, "source": null, "name:sw": null, "osm_id": 3702342279, "osm_type": "nodes" }, "geometry": { "type": "Point", "coordinates": [ 39.9520173, 2.5405338 ] } },
{ "type": "Feature", "properties": { "name": "Erestino Dispensary", "name:en": null, "amenity": "clinic", "building": null, "healthcare": null, "healthcare:speciality": null, "operator:type": null, "capacity:persons": null, "addr:full": null, "addr:city": null, "source": null, "name:sw": null, "osm_id": 3696831492, "osm_type": "nodes" }, "geometry": { "type": "Point", "coordinates": [ 39.5534753, 3.4557024 ] } },
{ "type": "Feature", "properties": { "name": "Danaba Dispensary", "name:en": null, "amenity": "clinic", "building": null, "healthcare": null, "healthcare:speciality": null, "operator:type": null, "capacity:persons": null, "addr:full": null, "addr:city": null, "source": null, "name:sw": null, "osm_id": 3696856323, "osm_type": "nodes" }, "geometry": { "type": "Point", "coordinates": [ 39.7805417, 3.3372977 ] } },
{ "type": "Feature", "properties": { "name": "Friendly Pharmacy", "name:en": null, "amenity": "pharmacy", "building": null, "healthcare": "pharmacy", "healthcare:speciality": null, "operator:type": null, "capacity:persons": null, "addr:full": null, "addr:city": null, "source": null, "name:sw": null, "osm_id": 12114519295, "osm_type": "nodes" }, "geometry": { "type": "Point", "coordinates": [ 36.9900851, -1.144222 ] } },
{ "type": "Feature", "properties": { "name": "Tulatula Dispensary", "name:en": null, "amenity": "clinic", "building": null, "healthcare": null, "healthcare:speciality": null, "operator:type": null, "capacity:persons": null, "addr:full": null, "addr:city": null, "source": null, "name:sw": null, "osm_id": 3689589880, "osm_type": "nodes" }, "geometry": { "type": "Point", "coordinates": [ 39.8266712, 1.8886213 ] } },
{ "type": "Feature", "properties": { "name": "Tulatula Pharmacy", "name:en": null, "amenity": "pharmacy", "building": null, "healthcare": null, "healthcare:speciality": null, "operator:type": null, "capacity:persons": null, "addr:full": null, "addr:city": null, "source": null, "name:sw": null, "osm_id": 3689589882, "osm_type": "nodes" }, "geometry": { "type": "Point", "coordinates": [ 39.8230762, 1.8940839 ] } },
{ "type": "Feature", "properties": { "name": "Alhamdu Pharmacy", "name:en": null, "amenity": "pharmacy", "building": null, "healthcare": null, "healthcare:speciality": null, "operator:type": null, "capacity:persons": null, "addr:full": null, "addr:city": null, "source": null, "name:sw": null, "osm_id": 3713256935, "osm_type": "nodes" }, "geometry": { "type": "Point", "coordinates": [ 39.4933978, 1.017179 ] } },
{ "type": "Feature", "properties": { "name": "Loll Kuta North Dispensary", "name:en": null, "amenity": "pharmacy", "building": null, "healthcare": null, "healthcare:speciality": null, "operator:type": null, "capacity:persons": null, "addr:full": null, "addr:city": null, "source": null, "name:sw": null, "osm_id": 3713256975, "osm_type": "nodes" }, "geometry": { "type": "Point", "coordinates": [ 39.2778845, 1.4743626 ] } },
{ "type": "Feature", "properties": { "name": "Biyamathow Dispensary", "name:en": null, "amenity": "pharmacy", "building": null, "healthcare": null, "healthcare:speciality": null, "operator:type": null, "capacity:persons": null, "addr:full": null, "addr:city": null, "source": null, "name:sw": null, "osm_id": 3713209246, "osm_type": "nodes" }, "geometry": { "type": "Point", "coordinates": [ 40.4131839, 0.6139625 ] } },
{ "type": "Feature", "properties": { "name": "Dasheq Dispensary", "name:en": null, "amenity": "pharmacy", "building": null, "healthcare": null, "healthcare:speciality": null, "operator:type": null, "capacity:persons": null, "addr:full": null, "addr:city": null, "source": null, "name:sw": null, "osm_id": 3702840517, "osm_type": "nodes" }, "geometry": { "type": "Point", "coordinates": [ 40.2554339, 1.8781353 ] } },
{ "type": "Feature", "properties": { "name": "Dambas Health Center", "name:en": null, "amenity": "clinic", "building": null, "healthcare": null, "healthcare:speciality": null, "operator:type": null, "capacity:persons": null, "addr:full": null, "addr:city": null, "source": null, "name:sw": null, "osm_id": 3702721529, "osm_type": "nodes" }, "geometry": { "type": "Point", "coordinates": [ 40.0171996, 2.4027699 ] } },
{ "type": "Feature", "properties": { "name": "Elben Dispensary", "name:en": null, "amenity": "clinic", "building": null, "healthcare": null, "healthcare:speciality": null, "operator:type": null, "capacity:persons": null, "addr:full": null, "addr:city": null, "source": null, "name:sw": null, "osm_id": 3702721539, "osm_type": "nodes" }, "geometry": { "type": "Point", "coordinates": [ 40.1823437, 2.3020343 ] } },
{ "type": "Feature", "properties": { "name": "Bur Mayo Dispensary", "name:en": null, "amenity": "clinic", "building": null, "healthcare": null, "healthcare:speciality": null, "operator:type": null, "capacity:persons": null, "addr:full": null, "addr:city": null, "source": null, "name:sw": null, "osm_id": 3702436357, "osm_type": "nodes" }, "geometry": { "type": "Point", "coordinates": [ 40.2653301, 2.9759219 ] } },
{ "type": "Feature", "properties": { "name": "Dunto Dispensary", "name:en": null, "amenity": "clinic", "building": null, "healthcare": null, "healthcare:speciality": null, "operator:type": null, "capacity:persons": null, "addr:full": null, "addr:city": null, "source": null, "name:sw": null, "osm_id": 3702436364, "osm_type": "nodes" }, "geometry": { "type": "Point", "coordinates": [ 39.9863778, 2.7101903 ] } },
{ "type": "Feature", "properties": { "name": "Ogaralle Dispensary", "name:en": null, "amenity": "clinic", "building": null, "healthcare": null, "healthcare:speciality": null, "operator:type": null, "capacity:persons": null, "addr:full": null, "addr:city": null, "source": null, "name:sw": null, "osm_id": 3702436371, "osm_type": "nodes" }, "geometry": { "type": "Point", "coordinates": [ 40.2052802, 2.7472603 ] } },
{ "type": "Feature", "properties": { "name": "Gunana Dispensary", "name:en": null, "amenity": "clinic", "building": null, "healthcare": null, "healthcare:speciality": null, "operator:type": null, "capacity:persons": null, "addr:full": null, "addr:city": null, "source": null, "name:sw": null, "osm_id": 3702436366, "osm_type": "nodes" }, "geometry": { "type": "Point", "coordinates": [ 40.0978592, 3.16894 ] } },
{ "type": "Feature", "properties": { "name": "Barwaqo Dispensary", "name:en": null, "amenity": "clinic", "building": null, "healthcare": null, "healthcare:speciality": null, "operator:type": null, "capacity:persons": null, "addr:full": null, "addr:city": null, "source": null, "name:sw": null, "osm_id": 3683520805, "osm_type": "nodes" }, "geometry": { "type": "Point", "coordinates": [ 40.0360241, 1.7415482 ] } },
{ "type": "Feature", "properties": { "name": null, "name:en": null, "amenity": "hospital", "building": null, "healthcare": null, "healthcare:speciality": null, "operator:type": null, "capacity:persons": null, "addr:full": null, "addr:city": null, "source": null, "name:sw": null, "osm_id": 11748303669, "osm_type": "nodes" }, "geometry": { "type": "Point", "coordinates": [ 37.365733, -0.6195515 ] } },
{ "type": "Feature", "properties": { "name": "Waberi Health Center", "name:en": null, "amenity": "clinic", "building": null, "healthcare": null, "healthcare:speciality": null, "operator:type": null, "capacity:persons": null, "addr:full": null, "addr:city": null, "source": null, "name:sw": null, "osm_id": 3683621144, "osm_type": "nodes" }, "geometry": { "type": "Point", "coordinates": [ 40.0813793, 1.7542999 ] } },
{ "type": "Feature", "properties": { "name": "Wajir Bor Dispensary", "name:en": null, "amenity": "pharmacy", "building": null, "healthcare": null, "healthcare:speciality": null, "operator:type": null, "capacity:persons": null, "addr:full": null, "addr:city": null, "source": null, "name:sw": null, "osm_id": 3680037346, "osm_type": "nodes" }, "geometry": { "type": "Point", "coordinates": [ 40.5326309, 1.7426424 ] } },
{ "type": "Feature", "properties": { "name": "proposed chemura dispensary", "name:en": null, "amenity": "hospital", "building": null, "healthcare": null, "healthcare:speciality": null, "operator:type": "government", "capacity:persons": null, "addr:full": null, "addr:city": null, "source": null, "name:sw": null, "osm_id": 3674804333, "osm_type": "nodes" }, "geometry": { "type": "Point", "coordinates": [ 35.6262201, 0.5867508 ] } },
{ "type": "Feature", "properties": { "name": "Marie Stopes Uganda", "name:en": null, "amenity": "clinic", "building": null, "healthcare": null, "healthcare:speciality": null, "operator:type": null, "capacity:persons": null, "addr:full": null, "addr:city": null, "source": null, "name:sw": null, "osm_id": 7773159185, "osm_type": "nodes" }, "geometry": { "type": "Point", "coordinates": [ 34.0925829, 0.4644888 ] } },
{ "type": "Feature", "properties": { "name": "Ngaira Health Centre", "name:en": null, "amenity": "clinic", "building": null, "healthcare": "clinic", "healthcare:speciality": null, "operator:type": null, "capacity:persons": null, "addr:full": null, "addr:city": "Nairobi", "source": null, "name:sw": null, "osm_id": 5555704220, "osm_type": "nodes" }, "geometry": { "type": "Point", "coordinates": [ 36.8313235, -1.2735567 ] } },
{ "type": "Feature", "properties": { "name": "Karen Health Center", "name:en": null, "amenity": "hospital", "building": null, "healthcare": "hospital", "healthcare:speciality": null, "operator:type": null, "capacity:persons": null, "addr:full": null, "addr:city": "Nairobi", "source": null, "name:sw": null, "osm_id": 12142202587, "osm_type": "nodes" }, "geometry": { "type": "Point", "coordinates": [ 36.7058936, -1.3209008 ] } },
{ "type": "Feature", "properties": { "name": "Yala Level 4 Hospital", "name:en": null, "amenity": "hospital", "building": null, "healthcare": "hospital", "healthcare:speciality": null, "operator:type": null, "capacity:persons": null, "addr:full": null, "addr:city": null, "source": null, "name:sw": null, "osm_id": 11693537898, "osm_type": "nodes" }, "geometry": { "type": "Point", "coordinates": [ 34.5378179, 0.1012659 ] } },
{ "type": "Feature", "properties": { "name": "otange community health center", "name:en": null, "amenity": "hospital", "building": null, "healthcare": null, "healthcare:speciality": null, "operator:type": null, "capacity:persons": null, "addr:full": null, "addr:city": null, "source": null, "name:sw": null, "osm_id": 5172729032, "osm_type": "nodes" }, "geometry": { "type": "Point", "coordinates": [ 34.3790615, -0.8178241 ] } },
{ "type": "Feature", "properties": { "name": "M. P. Shah Hospital", "name:en": null, "amenity": "hospital", "building": null, "healthcare": "hospital", "healthcare:speciality": null, "operator:type": null, "capacity:persons": null, "addr:full": null, "addr:city": null, "source": null, "name:sw": null, "osm_id": 275554473, "osm_type": "nodes" }, "geometry": { "type": "Point", "coordinates": [ 36.8119684, -1.2637747 ] } },
{ "type": "Feature", "properties": { "name": "ongako dispensary", "name:en": null, "amenity": "hospital", "building": null, "healthcare": null, "healthcare:speciality": null, "operator:type": null, "capacity:persons": null, "addr:full": null, "addr:city": null, "source": null, "name:sw": null, "osm_id": 5172729000, "osm_type": "nodes" }, "geometry": { "type": "Point", "coordinates": [ 34.4686044, -0.6934663 ] } },
{ "type": "Feature", "properties": { "name": "osani community health centre", "name:en": null, "amenity": "hospital", "building": null, "healthcare": null, "healthcare:speciality": null, "operator:type": null, "capacity:persons": null, "addr:full": null, "addr:city": null, "source": null, "name:sw": null, "osm_id": 5172729043, "osm_type": "nodes" }, "geometry": { "type": "Point", "coordinates": [ 34.3016852, -0.8379064 ] } },
{ "type": "Feature", "properties": { "name": "Equity Afia Githurai", "name:en": null, "amenity": "clinic", "building": null, "healthcare": "clinic", "healthcare:speciality": null, "operator:type": "private", "capacity:persons": null, "addr:full": null, "addr:city": "Nairobi", "source": null, "name:sw": null, "osm_id": 8418147817, "osm_type": "nodes" }, "geometry": { "type": "Point", "coordinates": [ 36.9158986, -1.2039809 ] } },
{ "type": "Feature", "properties": { "name": "State House Clinic", "name:en": null, "amenity": "clinic", "building": null, "healthcare": "clinic", "healthcare:speciality": "general", "operator:type": "public", "capacity:persons": null, "addr:full": null, "addr:city": null, "source": "local knowledge", "name:sw": null, "osm_id": 11684804711, "osm_type": "nodes" }, "geometry": { "type": "Point", "coordinates": [ 36.805034, -1.2784487 ] } },
{ "type": "Feature", "properties": { "name": "Jirena Medical Centre - Nomads Dispensary", "name:en": null, "amenity": "clinic", "building": null, "healthcare": null, "healthcare:speciality": null, "operator:type": null, "capacity:persons": null, "addr:full": null, "addr:city": null, "source": null, "name:sw": null, "osm_id": 5128845812, "osm_type": "nodes" }, "geometry": { "type": "Point", "coordinates": [ 37.3635184, 3.2012081 ] } },
{ "type": "Feature", "properties": { "name": "GEOJAN CHEMIST", "name:en": null, "amenity": "hospital", "building": null, "healthcare": null, "healthcare:speciality": null, "operator:type": "private", "capacity:persons": null, "addr:full": null, "addr:city": null, "source": null, "name:sw": null, "osm_id": 2373149870, "osm_type": "nodes" }, "geometry": { "type": "Point", "coordinates": [ 36.8589623, -1.2542578 ] } },
{ "type": "Feature", "properties": { "name": "Kishaunet Dispensary", "name:en": null, "amenity": "clinic", "building": null, "healthcare": null, "healthcare:speciality": null, "operator:type": null, "capacity:persons": null, "addr:full": null, "addr:city": null, "source": null, "name:sw": null, "osm_id": 6948364837, "osm_type": "nodes" }, "geometry": { "type": "Point", "coordinates": [ 35.08168, 1.2787817 ] } },
{ "type": "Feature", "properties": { "name": "Baraka chemist", "name:en": null, "amenity": "pharmacy", "building": null, "healthcare": null, "healthcare:speciality": null, "operator:type": "private", "capacity:persons": null, "addr:full": null, "addr:city": null, "source": null, "name:sw": null, "osm_id": 2379875645, "osm_type": "nodes" }, "geometry": { "type": "Point", "coordinates": [ 36.8552985, -1.2620373 ] } },
{ "type": "Feature", "properties": { "name": "Mvuke Clinic", "name:en": null, "amenity": "clinic", "building": null, "healthcare": null, "healthcare:speciality": null, "operator:type": null, "capacity:persons": null, "addr:full": null, "addr:city": null, "source": null, "name:sw": null, "osm_id": 4129583389, "osm_type": "nodes" }, "geometry": { "type": "Point", "coordinates": [ 36.3189466, -0.817411 ] } },
{ "type": "Feature", "properties": { "name": "Maramtu pharmacy", "name:en": null, "amenity": "pharmacy", "building": null, "healthcare": "pharmacy", "healthcare:speciality": null, "operator:type": "public", "capacity:persons": null, "addr:full": null, "addr:city": null, "source": "KRCS2023", "name:sw": null, "osm_id": 11645444598, "osm_type": "nodes" }, "geometry": { "type": "Point", "coordinates": [ 39.6256945, -0.4895701 ] } },
{ "type": "Feature", "properties": { "name": "Mwina pharmacy", "name:en": null, "amenity": "pharmacy", "building": null, "healthcare": "pharmacy", "healthcare:speciality": null, "operator:type": "public", "capacity:persons": null, "addr:full": null, "addr:city": null, "source": "KRCS2023", "name:sw": null, "osm_id": 11645444610, "osm_type": "nodes" }, "geometry": { "type": "Point", "coordinates": [ 40.1761323, -2.0622306 ] } },
{ "type": "Feature", "properties": { "name": "Kitere minhaj pharmacy", "name:en": null, "amenity": "pharmacy", "building": null, "healthcare": null, "healthcare:speciality": null, "operator:type": "public", "capacity:persons": null, "addr:full": null, "addr:city": null, "source": "KRCS2023", "name:sw": null, "osm_id": 11645444596, "osm_type": "nodes" }, "geometry": { "type": "Point", "coordinates": [ 40.1491228, -1.959303 ] } },
{ "type": "Feature", "properties": { "name": "Kinyadu pharmacy", "name:en": null, "amenity": "pharmacy", "building": null, "healthcare": null, "healthcare:speciality": null, "operator:type": "public", "capacity:persons": null, "addr:full": null, "addr:city": null, "source": "KRCS2023", "name:sw": null, "osm_id": 11645444597, "osm_type": "nodes" }, "geometry": { "type": "Point", "coordinates": [ 40.1543165, -2.0197389 ] } },
{ "type": "Feature", "properties": { "name": "Tarasaa Catholic pharmacy", "name:en": null, "amenity": "pharmacy", "building": null, "healthcare": null, "healthcare:speciality": null, "operator:type": "religious", "capacity:persons": null, "addr:full": null, "addr:city": null, "source": "KRCS2023", "name:sw": null, "osm_id": 11645444599, "osm_type": "nodes" }, "geometry": { "type": "Point", "coordinates": [ 40.1691924, -2.4411406 ] } },
{ "type": "Feature", "properties": { "name": "Kipao pharmacy", "name:en": null, "amenity": "pharmacy", "building": null, "healthcare": null, "healthcare:speciality": null, "operator:type": "public", "capacity:persons": null, "addr:full": null, "addr:city": null, "source": "KRCS2023", "name:sw": null, "osm_id": 11645444600, "osm_type": "nodes" }, "geometry": { "type": "Point", "coordinates": [ 40.2117108, -2.4353704 ] } },
{ "type": "Feature", "properties": { "name": "Chewele pharmacy", "name:en": null, "amenity": "pharmacy", "building": null, "healthcare": null, "healthcare:speciality": null, "operator:type": "public", "capacity:persons": null, "addr:full": null, "addr:city": null, "source": "KRCS2023", "name:sw": null, "osm_id": 11645444601, "osm_type": "nodes" }, "geometry": { "type": "Point", "coordinates": [ 39.9515996, -1.1579152 ] } },
{ "type": "Feature", "properties": { "name": "Blue heal medical clinic", "name:en": null, "amenity": "clinic", "building": null, "healthcare": null, "healthcare:speciality": null, "operator:type": "private", "capacity:persons": null, "addr:full": null, "addr:city": null, "source": "KRCS2023", "name:sw": null, "osm_id": 11645444602, "osm_type": "nodes" }, "geometry": { "type": "Point", "coordinates": [ 40.3247025, -2.520322 ] } },
{ "type": "Feature", "properties": { "name": "Ngao Sub County Hospital", "name:en": null, "amenity": "hospital", "building": null, "healthcare": null, "healthcare:speciality": null, "operator:type": "public", "capacity:persons": null, "addr:full": null, "addr:city": null, "source": "KRCS2023", "name:sw": null, "osm_id": 11645444603, "osm_type": "nodes" }, "geometry": { "type": "Point", "coordinates": [ 40.2016374, -2.4121473 ] } },
{ "type": "Feature", "properties": { "name": "Gamba pharmacy", "name:en": null, "amenity": "pharmacy", "building": null, "healthcare": null, "healthcare:speciality": null, "operator:type": "public", "capacity:persons": null, "addr:full": null, "addr:city": null, "source": "KRCS2023", "name:sw": null, "osm_id": 11645444604, "osm_type": "nodes" }, "geometry": { "type": "Point", "coordinates": [ 40.1825618, -2.2781597 ] } },
{ "type": "Feature", "properties": { "name": "Wema catholic pharmacy", "name:en": null, "amenity": "pharmacy", "building": null, "healthcare": null, "healthcare:speciality": null, "operator:type": "religious", "capacity:persons": null, "addr:full": null, "addr:city": null, "source": "KRCS2023", "name:sw": null, "osm_id": 11645444605, "osm_type": "nodes" }, "geometry": { "type": "Point", "coordinates": [ 40.1781074, -2.2189976 ] } },
{ "type": "Feature", "properties": { "name": "Wema Private Clinic", "name:en": null, "amenity": "clinic", "building": null, "healthcare": null, "healthcare:speciality": null, "operator:type": "private", "capacity:persons": null, "addr:full": null, "addr:city": null, "source": "KRCS2023", "name:sw": null, "osm_id": 11645444608, "osm_type": "nodes" }, "geometry": { "type": "Point", "coordinates": [ 40.178112, -2.2101614 ] } },
{ "type": "Feature", "properties": { "name": "Semikaro pharmacy", "name:en": null, "amenity": "pharmacy", "building": null, "healthcare": null, "healthcare:speciality": null, "operator:type": "public", "capacity:persons": null, "addr:full": null, "addr:city": null, "source": "KRCS2023", "name:sw": null, "osm_id": 11645444609, "osm_type": "nodes" },